case_enquiry_id,open_dt,sla_target_dt,closed_dt,on_time,case_status,closure_reason,case_title,subject,reason,type,queue,department,submitted_photo,closed_photo,location,fire_district,pwd_district,city_council_district,police_district,neighborhood,neighborhood_services_district,ward,precinct,location_street_name,location_zipcode,latitude,longitude,geom_4326,source
101002296910,2018-01-01 02:39:14,,2018-01-01 02:40:23,ONTIME,Closed,Case Closed. Closed date : 2018-01-01 07:40:23.397 Case Invalid ,Animal Generic Request,Animal Control,Animal Issues,Animal Generic Request,INFO01_GenericeFormforOtherServiceRequestTypes,INFO,,,26 Mahler Rd  Roslindale  MA  02131,12,02,5,E5,Roslindale,10,Ward 19,1911,26 Mahler Rd,2131.0,42.29445641362411,-71.1215167437687,0101000020E6100000CA192AEEC6C751C0774E6DBFB0254540,Constituent Call
101002296940,2018-01-01 04:42:00,2018-05-01 05:42:34,,OVERDUE,Open, ,Pest Infestation - Residential,Inspectional Services,Housing,Pest Infestation - Residential,ISD_Housing (INTERNAL),ISD,,,156 Spencer St  Dorchester  MA  02124,8,07,4,B3,Dorchester,9,17,1705,156 Spencer St,2124.0,42.29162964489721,-71.07515104543928,0101000020E6100000019B5446CFC451C056B0C51E54254540,Constituent Call
101002296972,2018-01-01 06:00:00,,,ONTIME,Open, ,Animal Generic Request,Animal Control,Animal Issues,Animal Generic Request,INFO01_GenericeFormforOtherServiceRequestTypes,INFO,,,261 Columbia Rd  Dorchester  MA  02121,7,03,4,C11,Roxbury,13,Ward 14,1401,261 Columbia Rd,2121.0,42.30828169921591,-71.07468531339653,0101000020E6100000E5A1E8A4C7C451C0380B54C675274540,Constituent Call
101002296975,2018-01-01 06:03:00,,2018-01-01 06:09:58,ONTIME,Closed,Case Closed. Closed date : 2018-01-01 11:09:58.52 Case Resolved Owner came in  ,Animal Generic Request,Animal Control,Animal Issues,Animal Generic Request,INFO01_GenericeFormforOtherServiceRequestTypes,INFO,,,20 Vine St  Charlestown  MA  02129,3,1A,1,A15,Charlestown,2,02,0202,20 Vine St,2129.0,42.37646258052009,-71.0559813311847,0101000020E6100000FDA7B83295C351C033C003ED2F304540,Constituent Call
101002296984,2018-01-01 06:30:00,,2018-02-01 11:59:26,ONTIME,Closed,Case Closed. Closed date : 2018-02-01 16:59:26.943 Case Noted ACO responded to the location and was unable to locate the squirrel.   Thank you! ,Animal Generic Request,Animal Control,Animal Issues,Animal Generic Request,INFO01_GenericeFormforOtherServiceRequestTypes,INFO,,,44 Standard St  Mattapan  MA  02126,8,07,4,B3,Greater Mattapan,9,Ward 18,1801,44 Standard St,2126.0,42.2732195563821,-71.07914068353014,0101000020E6100000E2E215A410C551C0F6A4C1DBF8224540,Constituent Call
101002297013,2018-01-01 07:35:00,,,ONTIME,Open, ,Animal Generic Request,Animal Control,Animal Issues,Animal Generic Request,INFO01_GenericeFormforOtherServiceRequestTypes,INFO,,,9 Claremont Park  Roxbury  MA  02118,4,1C,7,D4,South End,6,Ward 4,0404,9 Claremont Park,2118.0,42.34216955078375,-71.08092053367346,0101000020E6100000F46C51CD2DC551C0D0263B36CC2B4540,Constituent Call
101002297088,2018-01-01 09:35:01,2018-01-02 09:35:02,2018-01-01 13:37:45,ONTIME,Closed,Case Closed. Closed date : 2018-01-01 18:37:45.537 Case Resolved Dead pigeon picked up ,Pick up Dead Animal,Public Works Department,Street Cleaning,Pick up Dead Animal,PWDx_District 1B: North End,PWDx,,,198 Salem St  Boston  MA  02113,3,1B,1,A1,Downtown / Financial District,3,Ward 3,0302,198 Salem St,2113.0,42.36697951477019,-71.05451041926419,0101000020E6100000FB0145197DC351C0B61E4B2FF92E4540,Citizens Connect App
101002297234,2018-01-01 17:58:00,,2018-01-01 18:01:46,ONTIME,Closed,Case Closed. Closed date : 2018-01-01 23:01:46.117 Case Resolved Constituent found the owner ,Animal Generic Request,Animal Control,Animal Issues,Animal Generic Request,INFO01_GenericeFormforOtherServiceRequestTypes,INFO,,,29 Wabon St  Dorchester  MA  02121,9,10B,7,B2,Roxbury,13,Ward 12,1202,29 Wabon St,2121.0,42.31485956161794,-71.086440607233,0101000020E61000002D472F3E88C551C0B1FD6F514D284540,Constituent Call
101002297340,2018-01-02 03:43:44,2018-01-03 03:43:44,2018-01-02 07:50:22,ONTIME,Closed,Case Closed. Closed date : 2018-01-02 12:50:22.67 Case Resolved Rodent removed ,Pick up Dead Animal,Public Works Department,Street Cleaning,Pick up Dead Animal,PWDx_District 10A: Roxbury,PWDx,,,53 Bay State Rd  Boston  MA  02215,4,10A,8,D4,Fenway / Kenmore / Audubon Circle / Longwood,14,Ward 5,0510,53 Bay State Rd,2215.0,42.350171568655206,-71.09511854744551,0101000020E610000060A11A6C16C651C07BAE056CD22C4540,Citizens Connect App
101002297399,2018-01-02 04:31:00,2018-05-02 05:31:24,,OVERDUE,Open, ,Bed Bugs,Inspectional Services,Housing,Bed Bugs,ISD_Housing (INTERNAL),ISD,,,55 Heath St  Jamaica Plain  MA  02130,9,10A,6,E13,Jamaica Plain,11,Ward 10,1007,55 Heath St,2130.0,42.32580957813599,-71.09989061302743,0101000020E61000005508999B64C651C0A868D520B4294540,Constituent Call
101002297657,2018-01-02 07:50:08,2018-01-03 07:50:08,2018-01-02 08:40:55,ONTIME,Closed,Case Closed. Closed date : 2018-01-02 13:40:55.127 Case Resolved ,Pick up Dead Animal,Public Works Department,Street Cleaning,Pick up Dead Animal,PWDx_District 1C: Downtown,PWDx,,,217 Commonwealth Ave  Boston  MA  02116,4,1C,8,D4,Back Bay,14,Ward 5,0508,217 Commonwealth Ave,2116.0,42.35138955151245,-71.08185051489103,0101000020E61000008927F1093DC551C077F33355FA2C4540,Citizens Connect App
101002297722,2018-01-02 08:49:00,,2018-02-23 08:24:25,ONTIME,Closed,Case Closed. Closed date : 2018-02-23 13:24:25.82 Case Resolved Animal control was notified on 1/3 and will investigate this complaint ,Animal Generic Request,Animal Control,Animal Issues,Animal Generic Request,INFO01_GenericeFormforOtherServiceRequestTypes,INFO,,,43 Norton St  Dorchester  MA  02125,7,03,4,C11,Dorchester,8,Ward 15,1502,43 Norton St,2125.0,42.30600953842885,-71.06874058715104,0101000020E61000002E6EEB3E66C451C072E80F522B274540,Constituent Call
101002297773,2018-01-02 09:31:00,,2018-02-23 08:27:43,ONTIME,Closed,Case Closed. Closed date : 2018-02-23 13:27:43.6 Case Resolved Animal control went out on 1/2/18 and was unable to locate the dog. ,Animal Found,Animal Control,Animal Issues,Animal Found,ANML02_LostFound,ANML,,,380 Centre St  Jamaica Plain  MA  02130,9,02,6,E13,Jamaica Plain,11,Ward 19,1901,380 Centre St,2130.0,42.3219495914168,-71.10933064288798,0101000020E6100000E4E9F345FFC651C0400CEBA435294540,Constituent Call
101002297793,2018-01-02 09:44:00,2018-01-03 09:44:05,2018-01-02 12:21:31,ONTIME,Closed,Case Closed. Closed date : 2018-01-02 17:21:31.68 Case Noted No dead bird found upon arrival ,Pick up Dead Animal,Public Works Department,Street Cleaning,Pick up Dead Animal,PWDx_District 1C: Downtown,PWDx,,,587 Boylston St  Boston  MA  02116,4,1C,8,D4,Back Bay,14,Ward 5,0507,587 Boylston St,2116.0,42.35051383380335,-71.07690077933447,0101000020E6100000D2113FF1EBC451C0907D26A3DD2C4540,Constituent Call
101002297812,2018-01-02 10:07:00,2018-05-02 11:07:02,,OVERDUE,Open, ,Pest Infestation - Residential,Inspectional Services,Housing,Pest Infestation - Residential,ISD_Housing (INTERNAL),ISD,,,55 Minot St  Dorchester  MA  02122,8,07,3,C11,Dorchester,7,Ward 16,1609,55 Minot St,2122.0,42.285674510988656,-71.04773258517213,0101000020E61000002411F90C0EC351C0A0FF7CFB90244540,Constituent Call
101002297845,2018-01-02 10:34:00,,,ONTIME,Open, ,Animal Generic Request,Animal Control,Animal Issues,Animal Generic Request,INFO01_GenericeFormforOtherServiceRequestTypes,INFO,,,INTERSECTION of Massachusetts Ave & Commonwealth Ave  Boston  MA  ,4,1C,7,D4,Back Bay,14,5,0509,INTERSECTION Massachusetts Ave & Commonwealth Ave,,42.34913777629847,-71.0886478724936,0101000020E6100000144E2068ACC551C00380F18BB02C4540,Constituent Call
101002297896,2018-01-02 11:17:00,,,ONTIME,Open, ,Animal Generic Request,Animal Control,Animal Issues,Animal Generic Request,INFO01_GenericeFormforOtherServiceRequestTypes,INFO,,,42-48 Batterymarch St  Boston  MA  02109,3,1C,1,A1,Downtown / Financial District,3,Ward 3,0306,42-48 Batterymarch St,2109.0,42.3575695142942,-71.05385043892684,0101000020E61000003A841C4972C351C058F87CD6C42D4540,Constituent Call
101002297923,2018-01-02 11:42:00,,,ONTIME,Open, ,Animal Generic Request,Animal Control,Animal Issues,Animal Generic Request,INFO01_GenericeFormforOtherServiceRequestTypes,INFO,,,76 W Broadway  South Boston  MA  02127,6,05,2,C6,South Boston / South Boston Waterfront,5,Ward 6,0601,76 W Broadway,2127.0,42.342049517587,-71.05548047688617,0101000020E6100000BA72FCFD8CC351C00AD35147C82B4540,Constituent Call
101002297935,2018-01-02 11:58:00,,,ONTIME,Open, ,Animal Generic Request,Animal Control,Animal Issues,Animal Generic Request,INFO01_GenericeFormforOtherServiceRequestTypes,INFO,,,77 Broad St  Boston  MA  02109,3,1C,1,A1,Downtown / Financial District,3,Ward 3,0306,77 Broad St,2109.0,42.35764283379656,-71.05364007416792,0101000020E61000009913C7D66EC351C00967893DC72D4540,Constituent Call
101002297944,2018-01-02 12:06:00,,2018-02-23 08:23:13,ONTIME,Closed,Case Closed. Closed date : 2018-02-23 13:23:13.7 Case Resolved Animal control was notified on 1/3/18 and will investigate this complaint. ,Animal Generic Request,Animal Control,Animal Issues,Animal Generic Request,INFO01_GenericeFormforOtherServiceRequestTypes,INFO,,,7 Denby Rd  Allston  MA  02134,11,04,9,D14,Allston / Brighton,15,Ward 22,2202,7 Denby Rd,2134.0,42.355209619451294,-71.13445062450329,0101000020E6100000C7CACAD69AC851C04B624182772D4540,Constituent Call
101002298047,2018-01-02 13:45:00,2018-01-04 03:30:00,2018-01-02 15:17:33,ONTIME,Closed,Case Closed. Closed date : 2018-01-02 20:17:33.613 Case Resolved Picked up dead rat ,Pick up Dead Animal,Public Works Department,Street Cleaning,Pick up Dead Animal,PWDx_District 05: South Boston,PWDx,,,80 Preble St  South Boston  MA  02127,6,05,2,C6,South Boston / South Boston Waterfront,5,Ward 7,0706,80 Preble St,2127.0,42.329379516337575,-71.05398050179026,0101000020E6100000E573A26A74C351C03352A51B292A4540,Constituent Call
101002298057,2018-01-02 13:58:00,,,ONTIME,Open, ,Animal Generic Request,Animal Control,Animal Issues,Animal Generic Request,INFO01_GenericeFormforOtherServiceRequestTypes,INFO,,,52 Newport St  Dorchester  MA  02125,7,03,3,C11,Dorchester,7,Ward 13,1307,52 Newport St,2125.0,42.31721151757707,-71.05407352912776,0101000020E6100000B7CBD1F075C351C03BF412639A284540,Constituent Call
101002298138,2018-01-02 16:14:00,2018-01-04 03:30:00,2018-01-03 02:02:43,ONTIME,Closed,Case Closed. Closed date : 2018-01-03 07:02:43.863 Case Resolved ,Pick up Dead Animal,Public Works Department,Street Cleaning,Pick up Dead Animal,PWDx_District 1B: North End,PWDx,,,11 North Sq  Boston  MA  02113,3,1B,1,A1,Downtown / Financial District,3,Ward 3,0303,11 North Sq,2113.0,42.36389951359519,-71.05362042398582,0101000020E6100000ACDA5B846EC351C0F9F55E42942E4540,Citizens Connect App
101002298453,2018-01-03 05:09:00,2018-01-04 05:09:41,2018-01-04 04:36:22,ONTIME,Closed,Case Closed. Closed date : 2018-01-04 09:36:22.74 Case Resolved removed ,Pick up Dead Animal,Public Works Department,Street Cleaning,Pick up Dead Animal,PARK_Maintenance_Region 1,PARK,,,INTERSECTION of Avery St & Tremont St  Boston  MA  ,3,1C,2,A1,Downtown / Financial District,4,3,0308,INTERSECTION Avery St & Tremont St,,42.35338401547232,-71.06422908674134,0101000020E610000062C050541CC451C0FFB0FAAF3B2D4540,Citizens Connect App
101002298554,2018-01-03 06:45:00,2018-01-04 06:45:29,,OVERDUE,Open, ,Pick up Dead Animal,Public Works Department,Street Cleaning,Pick up Dead Animal,INFO_Reallocation From Dept,INFO,,,2326 Washington St  Roxbury  MA  02119,9,10B,7,B2,Roxbury,13,Ward 9,0804,2326 Washington St,2119.0,42.32992955652864,-71.0841005682975,0101000020E61000006B9A59E761C551C01CA3B7213B2A4540,Citizens Connect App
101002299083,2018-01-03 14:59:00,,,ONTIME,Open, ,Animal Generic Request,Animal Control,Animal Issues,Animal Generic Request,INFO01_GenericeFormforOtherServiceRequestTypes,INFO,,,8 Wigglesworth St  Mission Hill  MA  02120,9,10A,8,B2,Mission Hill,14,Ward 10,1003,8 Wigglesworth St,2120.0,42.3342495816945,-71.10320060156035,0101000020E61000004528B2D69AC651C02F0AB7B0C82A4540,Constituent Call
101002299130,2018-01-03 17:40:00,,,ONTIME,Open, ,Animal Lost,Animal Control,Animal Issues,Animal Lost,ANML02_LostFound,ANML,,,29 Philbrick St  Roslindale  MA  02131,12,02,5,E18,Roslindale,10,Ward 18,1807,29 Philbrick St,2131.0,42.28581960914335,-71.11816074370194,0101000020E6100000BC7714F28FC751C0C0E9A8BC95244540,Constituent Call
101002299158,2018-01-03 19:45:00,,,ONTIME,Open, ,Animal Generic Request,Animal Control,Animal Issues,Animal Generic Request,INFO01_GenericeFormforOtherServiceRequestTypes,INFO,,,70 Rowes Whf  Boston  MA  02110,3,1C,1,A1,Boston,3,03,0306,70 Rowes Whf,2110.0,42.35590632465803,-71.05016560022811,0101000020E61000004B17C7E935C351C0436CA4568E2D4540,Constituent Call
101002299192,2018-01-04 02:01:26,2018-01-05 03:30:00,2018-01-04 07:10:42,ONTIME,Closed,Case Closed. Closed date : 2018-01-04 12:10:42.02 Case Resolved Pick up dead Animal  ,Pick up Dead Animal,Public Works Department,Street Cleaning,Pick up Dead Animal,PWDx_District 09: East Boston,PWDx,,,INTERSECTION of Byron St & Cowper St  East Boston  MA  ,1,09,1,A7,East Boston,1,1,0111,INTERSECTION Byron St & Cowper St,,42.38174463674097,-71.01512896080276,0101000020E6100000B3F775DFF7C051C0E91C1D02DD304540,Citizens Connect App
101002299329,2018-01-04 04:47:00,,,ONTIME,Open, ,Animal Generic Request,Animal Control,Animal Issues,Animal Generic Request,INFO01_GenericeFormforOtherServiceRequestTypes,INFO,,,71-73 Meridian St  East Boston  MA  02128,1,09,1,A7,East Boston,1,01,0104,71-73 Meridian St,2128.0,42.37196629941715,-71.03881823974784,0101000020E6100000238D7FFF7BC251C0FC9A79979C2F4540,Constituent Call
101002299346,2018-01-04 05:05:28,,,ONTIME,Open, ,Animal Generic Request,Animal Control,Animal Issues,Animal Generic Request,INFO01_GenericeFormforOtherServiceRequestTypes,INFO,,,11 Parsons St  Brighton  MA  02135,11,04,9,D14,Allston / Brighton,15,Ward 22,2203,11 Parsons St,2135.0,42.34970464779656,-71.15528768393473,0101000020E610000029FEC03BF0C951C0D0C5341FC32C4540,Constituent Call
101002299350,2018-01-04 05:09:00,,,ONTIME,Open, ,Animal Found,Animal Control,Animal Issues,Animal Found,ANML02_LostFound,ANML,,,273-283 Meridian St  East Boston  MA  02128,1,09,1,A7,East Boston,1,Ward 1,0107,273-283 Meridian St,2128.0,42.37656965793082,-71.0389505843362,0101000020E61000009578972A7EC251C049BD3E6F33304540,Constituent Call
101002299366,2018-01-04 05:29:00,,2018-02-01 08:13:18,ONTIME,Closed,Case Closed. Closed date : 2018-02-01 13:13:18.15 Case Resolved The dog was returned to its owner.   Thank you! ,Animal Found,Animal Control,Animal Issues,Animal Found,ANML02_LostFound,ANML,,,1850 Dorchester Ave  Dorchester  MA  02124,8,07,3,C11,Dorchester,7,Ward 16,1606,1850 Dorchester Ave,2124.0,42.28780017313812,-71.0635351190403,0101000020E61000003C9B9AF510C451C0A8B4D5A2D6244540,Constituent Call
101002299474,2018-01-04 07:17:00,2018-05-04 08:17:27,,OVERDUE,Open, ,Pest Infestation - Residential,Inspectional Services,Housing,Pest Infestation - Residential,ISD_Housing (INTERNAL),ISD,,,1 Beacon St  Boston  MA  02108,3,1B,1,A1,Boston,3,03,0306,1 Beacon St,2108.0,42.358449523457,-71.06084045230737,0101000020E6100000C73B5ACFE4C351C0DE418AACE12D4540,Citizens Connect App
101002299514,2018-01-04 07:52:00,,,ONTIME,Open, ,Animal Lost,Animal Control,Animal Issues,Animal Lost,ANML02_LostFound,ANML,,,29 Philbrick St  Roslindale  MA  02131,12,02,5,E18,Roslindale,10,Ward 18,1807,29 Philbrick St,2131.0,42.2858196093075,-71.11816074343103,0101000020E6100000452D14F28FC751C0FF43A9BC95244540,Constituent Call
101002299887,2018-01-04 12:25:00,,,ONTIME,Open, ,Animal Generic Request,Animal Control,Animal Issues,Animal Generic Request,INFO01_GenericeFormforOtherServiceRequestTypes,INFO,,,80 Annunciation Rd  Mission Hill  MA  02120,9,10A,7,B2,Mission Hill,13,Ward 4,0409,80 Annunciation Rd,2120.0,42.33465956999352,-71.09444058095069,0101000020E61000004DA681500BC651C03235F21FD62A4540,Constituent Call
101002301298,2018-01-05 05:18:04,,2018-02-01 11:48:40,ONTIME,Closed,Case Closed. Closed date : 2018-02-01 16:48:40.153 Case Noted No contact information or address was provided. We are unable to send out an officer without the address.   Thank you! ,Animal Generic Request,Animal Control,Animal Issues,Animal Generic Request,INFO01_GenericeFormforOtherServiceRequestTypes,INFO,,, , , , , , , , , ,,,,,,Constituent Call
101002302489,2018-01-05 10:25:00,,,ONTIME,Open, ,Animal Generic Request,Animal Control,Animal Issues,Animal Generic Request,INFO01_GenericeFormforOtherServiceRequestTypes,INFO,,,96 Tonawanda St  Dorchester  MA  02124,7,03,4,C11,Dorchester,8,Ward 17,1702,96 Tonawanda St,2124.0,42.29795953935915,-71.06903060580113,0101000020E6100000B19558FF6AC451C0158AC68923264540,Constituent Call
101002303043,2018-01-05 12:45:00,,,ONTIME,Open, ,Animal Generic Request,Animal Control,Animal Issues,Animal Generic Request,INFO01_GenericeFormforOtherServiceRequestTypes,INFO,,,430 Faneuil St  Brighton  MA  02135,11,04,9,D14,Brighton,15,22,2213,430 Faneuil St,2135.0,42.35090001416072,-71.1682138990923,0101000020E610000061D53A04C4CA51C03C7EAA4AEA2C4540,Constituent Call
101002303419,2018-01-05 14:26:25,,,ONTIME,Open, ,Animal Generic Request,Animal Control,Animal Issues,Animal Generic Request,INFO01_GenericeFormforOtherServiceRequestTypes,INFO,,,INTERSECTION of Charter St & Commercial St  Boston  MA  ,3,1B,1,A1,Downtown / Financial District,3,3,0302,INTERSECTION Charter St & Commercial St,,42.36821051022987,-71.05666796861584,0101000020E6100000E4FBAF72A0C351C08ABDA185212F4540,Constituent Call
101002303426,2018-01-05 14:29:00,,,ONTIME,Open, ,Animal Generic Request,Animal Control,Animal Issues,Animal Generic Request,INFO01_GenericeFormforOtherServiceRequestTypes,INFO,,,103 Child St  Jamaica Plain  MA  02130,9,02,6,E13,Jamaica Plain,11,Ward 11,1109,103 Child St,2130.0,42.30672959643921,-71.11127068091746,0101000020E6100000D3E20F0F1FC751C0FAB558EA42274540,Constituent Call
101002304085,2018-01-06 05:00:00,,,ONTIME,Open, ,Animal Generic Request,Animal Control,Animal Issues,Animal Generic Request,INFO01_GenericeFormforOtherServiceRequestTypes,INFO,,,731 River St  Mattapan  MA  02126,8,08,5,E18,Mattapan,9,18,1805,731 River St,2126.0,42.26381959056911,-71.10271075812194,0101000020E610000031C524D092C651C0ECC420D7C4214540,Constituent Call
101002304383,2018-01-06 06:53:00,,,ONTIME,Open, ,Animal Generic Request,Animal Control,Animal Issues,Animal Generic Request,INFO01_GenericeFormforOtherServiceRequestTypes,INFO,,,106 Glenway St  Dorchester  MA  02121,7,03,4,B3,Greater Mattapan,8,Ward 14,1402,106 Glenway St,2121.0,42.29994955670463,-71.08163062972794,0101000020E61000002342AD6F39C551C07F3F40BF64264540,Constituent Call
101002304395,2018-01-06 06:58:00,,,ONTIME,Open, ,Animal Generic Request,Animal Control,Animal Issues,Animal Generic Request,INFO01_GenericeFormforOtherServiceRequestTypes,INFO,,,40 Virginia St  Dorchester  MA  02125,7,03,7,B2,Dorchester,13,Ward 13,1305,40 Virginia St,2125.0,42.315739536317054,-71.06797056378906,0101000020E6100000242435A159C451C09A4433276A284540,Constituent Call
101002305086,2018-01-06 11:57:00,,,ONTIME,Open, ,Animal Generic Request,Animal Control,Animal Issues,Animal Generic Request,INFO01_GenericeFormforOtherServiceRequestTypes,INFO,,,35 Chestnut Hill Ave  Brighton  MA  02135,11,04,9,D14,Allston / Brighton,15,Ward 22,2209,35 Chestnut Hill Ave,2135.0,42.34727964719487,-71.15445068750228,0101000020E6100000B0EA2285E2C951C05AA2D3A8732C4540,Constituent Call
101002305583,2018-01-07 04:18:21,2018-01-09 03:30:00,2018-01-12 06:30:33,OVERDUE,Closed,Case Closed. Closed date : 2018-01-12 11:30:33.93 Case Resolved ,Pick up Dead Animal,Public Works Department,Street Cleaning,Pick up Dead Animal,PWDx_District 1B: North End,PWDx,,,33 Bowdoin St  Boston  MA  02114,3,1B,2,A1,Beacon Hill,3,03,0306,33 Bowdoin St,2114.0,42.36022537303803,-71.06305803155273,0101000020E610000039D18D2409C451C0A13172DD1B2E4540,Citizens Connect App
101002305585,2018-01-07 04:21:00,2018-05-07 05:21:06,,OVERDUE,Open, ,Pest Infestation - Residential,Inspectional Services,Housing,Pest Infestation - Residential,ISD_Housing (INTERNAL),ISD,,,33-35 Bowdoin St  Boston  MA  02114,3,1B,1,A1,Boston,3,03,0306,33-35 Bowdoin St,2114.0,42.36015340834731,-71.06305634903005,0101000020E6100000E9387F1D09C451C08332C381192E4540,Citizens Connect App
101002306112,2018-01-07 09:30:00,,,ONTIME,Open, ,Animal Generic Request,Animal Control,Animal Issues,Animal Generic Request,INFO01_GenericeFormforOtherServiceRequestTypes,INFO,,,65-67 Charles St  Boston  MA  02114,3,1B,8,A1,Beacon Hill,14,Ward 5,0511,65-67 Charles St,2114.0,42.35805953560649,-71.07021047415954,0101000020E6100000859612547EC451C0B5B915E5D42D4540,Constituent Call
101002306171,2018-01-07 10:09:00,2018-05-07 11:09:55,2018-10-05 04:40:05,OVERDUE,Closed,Case Closed. Closed date : 2018-10-05 08:40:05.883 : ,Bed Bugs,Inspectional Services,Housing,Bed Bugs,ISD_Housing (INTERNAL),ISD,,,3 Oswald St  Mission Hill  MA  02120,9,10A,8,B2,Mission Hill,14,Ward 10,1003,3 Oswald St,2120.0,42.33152958345182,-71.10424060998675,0101000020E6100000B9B3CEE0ABC651C0814AB78F6F2A4540,Self Service
101002306193,2018-01-07 10:26:00,,,ONTIME,Open, ,Animal Generic Request,Animal Control,Animal Issues,Animal Generic Request,INFO01_GenericeFormforOtherServiceRequestTypes,INFO,,,212 Georgetowne Dr  Hyde Park  MA  02136,12,08,6,E5,West Roxbury,10,Ward 20,2003,212 Georgetowne Dr,2136.0,42.2601496552228,-71.1476508678778,0101000020E6100000B730A01C73C951C0B19F7A954C214540,Constituent Call
101002306294,2018-01-07 11:27:00,,,ONTIME,Open, ,Animal Generic Request,Animal Control,Animal Issues,Animal Generic Request,INFO01_GenericeFormforOtherServiceRequestTypes,INFO,,,216-230 Garfield Ave  Hyde Park  MA  02136,12,08,5,E18,Hyde Park,10,18,1817,216-230 Garfield Ave,2136.0,42.24301631425655,-71.12005720436069,0101000020E610000037986904AFC751C02C1099281B1F4540,Constituent Call
101002306432,2018-01-07 13:07:00,,2018-02-01 08:11:13,ONTIME,Closed,Case Closed. Closed date : 2018-02-01 13:11:13.443 Case Noted ACO responded to the location  the dog was gone on arrival.   Thank you! ,Animal Generic Request,Animal Control,Animal Issues,Animal Generic Request,INFO01_GenericeFormforOtherServiceRequestTypes,INFO,,,265 E Eighth St  South Boston  MA  02127,6,05,2,C6,South Boston / South Boston Waterfront,5,07,0705,265 E Eighth St,2127.0,42.33197527038736,-71.05000205745476,0101000020E61000000F60D43B33C351C07EB2682A7E2A4540,Constituent Call
101002306511,2018-01-07 14:12:00,,2018-02-26 04:18:43,ONTIME,Closed,Case Closed. Closed date : 2018-02-26 09:18:43.08 Case Resolved Animal control was notified on 1/7/18 and will investigate the complaint. thank you. ,Animal Noise Disturbances,Animal Control,Animal Issues,Animal Noise Disturbances,INFO01_GenericeFormforOtherServiceRequestTypes,INFO,,,33 Hall St  Jamaica Plain  MA  02130,9,02,6,E13,Jamaica Plain,11,Ward 11,1110,33 Hall St,2130.0,42.30466959979402,-71.11323069036315,0101000020E6100000D900F02B3FC751C0B199D769FF264540,Constituent Call
101002307603,2018-01-08 05:11:00,2018-05-08 06:11:58,2018-10-05 10:41:58,OVERDUE,Closed,Case Closed. Closed date : 2018-10-05 14:41:58.64 : ,Bed Bugs,Inspectional Services,Housing,Bed Bugs,ISD_Housing (INTERNAL),ISD,,,55 Heath St  Jamaica Plain  MA  02130,9,10A,6,E13,Jamaica Plain,11,Ward 10,1007,55 Heath St,2130.0,42.32580957813599,-71.09989061302743,0101000020E61000005508999B64C651C0A868D520B4294540,Constituent Call
101002307623,2018-01-08 05:17:00,2018-05-08 06:17:37,,OVERDUE,Open, ,Bed Bugs,Inspectional Services,Housing,Bed Bugs,ISD_Housing (INTERNAL),ISD,,,55 Heath St  Jamaica Plain  MA  02130,9,10A,6,E13,Jamaica Plain,11,Ward 10,1007,55 Heath St,2130.0,42.32580957813599,-71.09989061302743,0101000020E61000005508999B64C651C0A868D520B4294540,Constituent Call
101002308209,2018-01-08 08:22:00,,2021-01-11 06:45:31,ONTIME,Closed,Case Closed. Closed date : 2021-01-11 11:45:31.683 wrong e form  ,Animal Generic Request,Animal Control,Animal Issues,Animal Generic Request,INFO01_GenericeFormforOtherServiceRequestTypes,INFO,,,96 Itasca St  Mattapan  MA  02126,8,07,5,B3,Greater Mattapan,9,Ward 18,1803,96 Itasca St,2126.0,42.27615958438683,-71.09956072339293,0101000020E610000014BCF0335FC651C08EB57F3259234540,Constituent Call
101002308357,2018-01-08 09:12:00,,,ONTIME,Open, ,Animal Generic Request,Animal Control,Animal Issues,Animal Generic Request,INFO01_GenericeFormforOtherServiceRequestTypes,INFO,,,1213 VFW Pkwy  West Roxbury  MA  02132,12,06,6,E5,West Roxbury,12,Ward 20,2005,1213 VFW Pkwy,2132.0,42.27959168847235,-71.17407888373656,0101000020E6100000A724C21B24CB51C0701C13A9C9234540,Constituent Call
101002308361,2018-01-08 09:14:00,2018-05-08 10:14:15,,OVERDUE,Open, ,Pest Infestation - Residential,Inspectional Services,Housing,Pest Infestation - Residential,ISD_Housing (INTERNAL),ISD,,,INTERSECTION of Page's Ct & Athens St  South Boston  MA  ,6,05,2,C6,South Boston / South Boston Waterfront,5,6,0603,INTERSECTION Page's Ct & Athens St,,42.33892316690024,-71.04991640090178,0101000020E61000000F5A8FD431C351C0BDD896D5612B4540,Citizens Connect App
101002308644,2018-01-08 10:55:00,2018-05-08 11:55:53,,OVERDUE,Open, ,Pest Infestation - Residential,Inspectional Services,Housing,Pest Infestation - Residential,ISD_Housing (INTERNAL),ISD,,,15 Idaho St  Mattapan  MA  02126,8,07,3,B3,Dorchester,7,Ward 17,1714,15 Idaho St,2126.0,42.27209955178351,-71.07606067919474,0101000020E6100000CA699C2DDEC451C04E157A28D4224540,Citizens Connect App
101002308709,2018-01-08 11:17:00,,,ONTIME,Open, ,Animal Generic Request,Animal Control,Animal Issues,Animal Generic Request,INFO01_GenericeFormforOtherServiceRequestTypes,INFO,,,67 Townsend St  Roxbury  MA  02119,9,10B,7,B2,Roxbury,13,Ward 11,1103,67 Townsend St,2119.0,42.318329567827405,-71.09163061102011,0101000020E61000003569A346DDC551C09295F505BF284540,Constituent Call
101002308710,2018-01-08 11:17:00,2018-01-09 11:17:48,2018-01-10 09:43:54,OVERDUE,Closed,Case Closed. Closed date : 2018-01-10 14:43:54.98 Case Noted Nothing found at this location. ,Pick up Dead Animal,Public Works Department,Street Cleaning,Pick up Dead Animal,PWDx_District 02: Jamaica Plain,PWDx,,,INTERSECTION of Francis Parkman Dr & Perkins St  Jamaica Plain  MA  ,9,02,6,E13,Jamaica Plain,11,19,1903,INTERSECTION Francis Parkman Dr & Perkins St,,42.3193701660472,-71.12383152309005,0101000020E6100000AE780DDBECC751C0D33E211FE1284540,Constituent Call
101002308781,2018-01-08 11:37:00,,2018-02-26 05:09:50,ONTIME,Closed,Case Closed. Closed date : 2018-02-26 10:09:50.35 Case Resolved Animal Control determined this is the responsability of the homeowner to hire a private pest control company.  ,Animal Generic Request,Animal Control,Animal Issues,Animal Generic Request,INFO01_GenericeFormforOtherServiceRequestTypes,INFO,,,130 Fulton St  Boston  MA  02109,3,1B,1,A1,Downtown / Financial District,3,Ward 3,0301,130 Fulton St,2109.0,42.363339511880966,-71.05234042237902,0101000020E61000001C98A48B59C351C0CA6FBCE8812E4540,Constituent Call
101002308808,2018-01-08 11:44:00,2018-05-08 12:44:20,2018-04-26 08:58:49,ONTIME,Closed,Case Closed. Closed date : 2018-04-26 12:58:49.9 : ,Pest Infestation - Residential,Inspectional Services,Housing,Pest Infestation - Residential,ISD_Housing (INTERNAL),ISD,,,19 Monsignor Reynolds Way  Roxbury  MA  02118,4,1C,2,D4,South End,6,Ward 8,0801,19 Monsignor Reynolds Way,2118.0,42.34016953744463,-71.07034051447064,0101000020E61000000E4F807580C451C0C735E7AC8A2B4540,Constituent Call
101002308833,2018-01-08 11:50:51,2018-01-09 11:50:51,2018-02-08 07:03:35,OVERDUE,Closed,Case Closed Case Invalid  no eform  ,Pick up Dead Animal,Public Works Department,Street Cleaning,Pick up Dead Animal,PWDx_Pick Up Dead Animals,PWDx,,,INTERSECTION of Columbus Ave & Dimock St  Roxbury  MA  ,9,10B,6,E13,Jamaica Plain,11,11,1104,INTERSECTION Columbus Ave & Dimock St,,42.31956565935146,-71.09840890919162,0101000020E61000003CA7E1544CC651C06BEB0B87E7284540,Constituent Call
101002308958,2018-01-08 12:37:00,,,ONTIME,Open, ,Animal Generic Request,Animal Control,Animal Issues,Animal Generic Request,INFO01_GenericeFormforOtherServiceRequestTypes,INFO,,,378 Washington St  Dorchester  MA  02124,7,03,4,C11,Dorchester,9,Ward 17,1701,378 Washington St,2124.0,42.29863531409977,-71.07288206400042,0101000020E610000032568819AAC451C09EBE95AE39264540,Constituent Call
101002309223,2018-01-08 14:24:00,,,ONTIME,Open, ,Animal Generic Request,Animal Control,Animal Issues,Animal Generic Request,INFO01_GenericeFormforOtherServiceRequestTypes,INFO,,,2400 Washington St  Roxbury  MA  02119,9,10B,7,B2,Roxbury,13,12,1201,2400 Washington St,2119.0,42.32843360753939,-71.08567390630859,0101000020E6100000D26D68AE7BC551C0FDA4C91C0A2A4540,Constituent Call
101002309227,2018-01-08 14:25:00,2018-01-10 03:30:00,2018-01-09 01:47:05,ONTIME,Closed,Case Closed. Closed date : 2018-01-09 06:47:05.633 Case Resolved Nothing at location  ,Pick up Dead Animal,Public Works Department,Street Cleaning,Pick up Dead Animal,PWDx_District 03: North Dorchester,PWDx,,,15 Michigan Ave  Dorchester  MA  02121,7,03,4,B3,Greater Mattapan,13,Ward 14,1403,15 Michigan Ave,2121.0,42.30267955977989,-71.08384062820761,0101000020E6100000940E15A55DC551C00E362D34BE264540,Constituent Call
101002309259,2018-01-08 14:37:00,,,ONTIME,Open, ,Animal Found,Animal Control,Animal Issues,Animal Found,ANML02_LostFound,ANML,,,29 Mount Hood Rd  Brighton  MA  02135,11,04,9,D14,Allston / Brighton,15,Ward 21,2112,29 Mount Hood Rd,2135.0,42.342059632601,-71.14272067290078,0101000020E61000009BA4E35522C951C0CBA62B9CC82B4540,Constituent Call
101002309348,2018-01-08 15:31:00,,,ONTIME,Open, ,Animal Generic Request,Animal Control,Animal Issues,Animal Generic Request,INFO01_GenericeFormforOtherServiceRequestTypes,INFO,,,INTERSECTION of Germania St & Brookside Ave  Jamaica Plain  MA  ,9,02,6,E13,Jamaica Plain,11,11,1106,INTERSECTION Germania St & Brookside Ave,,42.314169628142174,-71.10266620078782,0101000020E610000073B2411592C651C03122DBB536284540,Constituent Call
101002309350,2018-01-08 15:32:00,,,ONTIME,Open, ,Animal Generic Request,Animal Control,Animal Issues,Animal Generic Request,INFO01_GenericeFormforOtherServiceRequestTypes,INFO,,,722 Morton St  Dorchester  MA  02124,8,07,4,B3,Greater Mattapan,9,Ward 14,1413,722 Morton St,2124.0,42.28426957071788,-71.09063068470674,0101000020E610000017B5A4E4CCC551C099BDFEF162244540,Constituent Call
101002309494,2018-01-08 17:41:00,,,ONTIME,Open, ,Animal Generic Request,Animal Control,Animal Issues,Animal Generic Request,INFO01_GenericeFormforOtherServiceRequestTypes,INFO,,,88 Church St  West Roxbury  MA  02132,9,06,6,E5,West Roxbury,12,Ward 20,2019,88 Church St,2132.0,42.29049964972688,-71.14789079986542,0101000020E61000004833F90A77C951C0C889AF172F254540,Constituent Call
101002309535,2018-01-08 18:44:00,,,ONTIME,Open, ,Animal Lost,Animal Control,Animal Issues,Animal Lost,ANML02_LostFound,ANML,,,121 Corey Rd  Brighton  MA  02135,11,04,9,D14,Brighton,15,21,2112,121 Corey Rd,2135.0,42.34202963016863,-71.14051066824887,0101000020E61000008D377520FEC851C02BEB7DA0C72B4540,Constituent Call
101002309539,2018-01-08 18:52:27,,2018-01-08 18:52:56,ONTIME,Closed,Case Closed. Closed date : 2018-01-08 23:52:56.283 Case Invalid wrong case ,Animal Generic Request,Animal Control,Animal Issues,Animal Generic Request,INFO01_GenericeFormforOtherServiceRequestTypes,INFO,,,80 Seaver St  Dorchester  MA  02121,9,10B,7,B2,Roxbury,13,Ward 12,1209,80 Seaver St,2121.0,42.311008571049015,-71.09286163026353,0101000020E61000003F42E871F1C551C032B7FC20CF274540,Constituent Call
101002309542,2018-01-08 18:55:00,,,ONTIME,Open, ,Animal Found,Animal Control,Animal Issues,Animal Found,ANML02_LostFound,ANML,,,39 Waumbeck St  Dorchester  MA  02121,9,10B,7,B2,Roxbury,13,Ward 12,1202,39 Waumbeck St,2121.0,42.314449562386265,-71.08719061007935,0101000020E6100000C8B3EC8794C551C063581DE23F284540,Constituent Call
101002309561,2018-01-08 21:50:00,2018-05-08 22:50:26,,OVERDUE,Open, ,Pest Infestation - Residential,Inspectional Services,Housing,Pest Infestation - Residential,ISD_Housing (INTERNAL),ISD,,,92 W Newton St  Roxbury  MA  02118,4,1C,2,D4,Roxbury,6,09,0901,92 W Newton St,2118.0,42.34069954495367,-71.07606052613994,0101000020E61000006812F82CDEC451C046ABED0A9C2B4540,Citizens Connect App
101002320433,2018-01-09 08:05:00,2018-05-09 09:05:14,2018-02-13 08:23:17,ONTIME,Closed,Case Closed. Closed date : 2018-02-13 13:23:17.887 : ,Pest Infestation - Residential,Inspectional Services,Housing,Pest Infestation - Residential,ISD_Housing (INTERNAL),ISD,,,57 Horan Way  Jamaica Plain  MA  02130,9,10A,6,E13,Jamaica Plain,11,Ward 10,1006,57 Horan Way,2130.0,42.32538958362588,-71.10374062260597,0101000020E6100000FF56B5AFA3C651C0EC10AA5DA6294540,Constituent Call
101002320957,2018-01-09 10:41:00,2018-05-09 11:41:21,2018-01-24 06:12:28,ONTIME,Closed,Case Closed. Closed date : 2018-01-24 11:12:28.723 NOVIO: No Violation Found/No Cause ,Pest Infestation - Residential,Inspectional Services,Housing,Pest Infestation - Residential,ISD_Housing (INTERNAL),ISD,,,4 Tyler St  Boston  MA  02111,4,1C,2,A1,Downtown / Financial District,4,Ward 3,0308,4 Tyler St,2111.0,42.35114952325216,-71.06040046771476,0101000020E6100000DF5FEC99DDC351C0E02FB377F22C4540,Citizens Connect App
101002320969,2018-01-09 10:43:00,2018-01-10 10:43:32,2018-02-05 09:46:20,OVERDUE,Closed,Case Closed. Closed date : 2018-02-05 14:46:20.793 Case Noted Thank you for your request. We apologize for the time it has taken to respond to this case. We now consider this service request closed. If this issue persists  please resubmit your case or call 311 to speak to an agent.  Thank you  Boston 311  ,Pick up Dead Animal,Public Works Department,Street Cleaning,Pick up Dead Animal,INFO_Reallocation From Dept,INFO,,,66 Charles St  Boston  MA  02114,3,1B,8,A1,Beacon Hill,14,Ward 5,0505,66 Charles St,2114.0,42.3576295358675,-71.07041047565518,0101000020E6100000078FF09A81C451C03A51FCCDC62D4540,Constituent Call
101002321113,2018-01-09 11:35:00,,2018-02-01 08:14:10,ONTIME,Closed,Case Closed. Closed date : 2018-02-01 13:14:10.583 Case Resolved ACO transported the bird to the shelter.   Thank you! ,Animal Generic Request,Animal Control,Animal Issues,Animal Generic Request,INFO01_GenericeFormforOtherServiceRequestTypes,INFO,,,256 Ashmont St  Dorchester  MA  02124,8,07,3,C11,Dorchester,7,Ward 16,1606,256 Ashmont St,2124.0,42.28690953044877,-71.06173061422689,0101000020E61000000E51F664F3C351C017189573B9244540,Constituent Call
101002321153,2018-01-09 11:44:33,,,ONTIME,Open, ,Animal Generic Request,Animal Control,Animal Issues,Animal Generic Request,INFO01_GenericeFormforOtherServiceRequestTypes,INFO,,,INTERSECTION of I St & E Seventh St  South Boston  MA  ,6,05,2,C6,South Boston / South Boston Waterfront,5,7,0702,INTERSECTION I St & E Seventh St,,42.33221711797123,-71.03986875488457,0101000020E61000002297AD358DC251C0CD6D2C17862A4540,Constituent Call
101002321173,2018-01-09 11:48:00,2018-01-10 11:48:42,2018-01-09 14:00:24,ONTIME,Closed,Case Closed. Closed date : 2018-01-09 19:00:24.913 Case Resolved I don't see any thing in this location please give us specific location thanks  ,Pick up Dead Animal,Public Works Department,Street Cleaning,Pick up Dead Animal,PWDx_District 08: Hyde Park,PWDx,,,511 Cummins Hwy  Roslindale  MA  02131,12,08,5,E18,Hyde Park,10,Ward 18,1806,511 Cummins Hwy,2131.0,42.274629599274846,-71.11016075039429,0101000020E6100000C30FADDF0CC751C014B30D1027234540,Constituent Call
101002321198,2018-01-09 11:56:00,2018-01-10 11:56:04,,OVERDUE,Open, ,Pick up Dead Animal,Public Works Department,Street Cleaning,Pick up Dead Animal,ANML_General,ANML,,,INTERSECTION of Summer St & Purchase St  Boston  MA  ,3,1C,2,A1,Downtown / Financial District,4,3,0306,INTERSECTION Summer St & Purchase St,,42.35296032297091,-71.05619440031995,0101000020E6100000ECE565B098C351C00BF9C9CD2D2D4540,Citizens Connect App
101002321564,2018-01-09 14:11:03,2018-01-11 03:30:00,2018-01-09 14:48:51,ONTIME,Closed,Case Closed. Closed date : 2018-01-09 19:48:51.993 Case Resolved It's all set   ,Pick up Dead Animal,Public Works Department,Street Cleaning,Pick up Dead Animal,PWDx_District 07: South Dorchester,PWDx,,,950 Harvard St  Mattapan  MA  02126,8,07,5,B3,Mattapan,9,18,1821,950 Harvard St,2126.0,42.27615259678645,-71.10830274311917,0101000020E6100000E4F0A06EEEC651C09FF3E1F758234540,Citizens Connect App
101002321572,2018-01-09 14:14:00,,2018-02-01 08:15:02,ONTIME,Closed,Case Closed. Closed date : 2018-02-01 13:15:02.647 Case Resolved ACO released the wild rabbit.   Thank you! ,Animal Found,Animal Control,Animal Issues,Animal Found,ANML02_LostFound,ANML,,,29 Business St  Hyde Park  MA  02136,12,08,5,E18,Hyde Park,10,Ward 18,1818,29 Business St,2136.0,42.25428162663543,-71.12691983416471,0101000020E6100000E03C5E741FC851C0BA2FE34C8C204540,Constituent Call
101002321609,2018-01-09 14:42:01,2018-01-11 03:30:00,2018-01-09 16:01:17,ONTIME,Closed,Case Closed. Closed date : 2018-01-09 21:01:17.617 Case Resolved It's all set  ,Pick up Dead Animal,Public Works Department,Street Cleaning,Pick up Dead Animal,PWDx_District 07: South Dorchester,PWDx,,,2 Stonecrest Rd  Mattapan  MA  02126,8,07,5,B3,Greater Mattapan,9,Ward 18,1803,2 Stonecrest Rd,2126.0,42.27798959506983,-71.1073707365675,0101000020E6100000B6868229DFC651C003BABD2995234540,Citizens Connect App
101002321625,2018-01-09 14:52:29,,2018-01-09 15:00:09,ONTIME,Closed,Case Closed. Closed date : 2018-01-09 20:00:09.543 Case Invalid wrong e-form  ,Animal Generic Request,Animal Control,Animal Issues,Animal Generic Request,INFO01_GenericeFormforOtherServiceRequestTypes,INFO,,,41 Van Winkle St  Dorchester  MA  02124,8,07,3,C11,Dorchester,7,Ward 16,1611,41 Van Winkle St,2124.0,42.28244953280625,-71.0631906272369,0101000020E61000005C59B3500BC451C02F16694E27244540,Constituent Call
101002321637,2018-01-09 15:02:32,,2018-01-09 15:03:13,ONTIME,Closed,Case Closed. Closed date : 2018-01-09 20:03:13.973 Case Invalid wrong e-form   ,Animal Found,Animal Control,Animal Issues,Animal Found,ANML02_LostFound,ANML,,,41 Van Winkle St  Dorchester  MA  02124,8,07,3,C11,Dorchester,7,Ward 16,1611,41 Van Winkle St,2124.0,42.28244953320765,-71.06319062732652,0101000020E6100000FE71B3500BC451C0DCF2694E27244540,Constituent Call
101002321641,2018-01-09 15:04:00,,2018-01-09 16:08:15,ONTIME,Closed,Case Closed. Closed date : 2018-01-09 21:08:15.697 Canceled - constituent called back to say bat is out of home.  ,Animal Generic Request,Animal Control,Animal Issues,Animal Generic Request,INFO01_GenericeFormforOtherServiceRequestTypes,INFO,,,41 Van Winkle St  Dorchester  MA  02124,8,07,3,C11,Dorchester,7,Ward 16,1611,41 Van Winkle St,2124.0,42.28244953280625,-71.0631906272369,0101000020E61000005C59B3500BC451C02F16694E27244540,Constituent Call
101002321873,2018-01-10 01:36:00,2018-01-11 03:30:00,2018-01-10 03:22:08,ONTIME,Closed,Case Closed. Closed date : 2018-01-10 08:22:08.907 Case Resolved Picked up ,Pick up Dead Animal,Public Works Department,Street Cleaning,Pick up Dead Animal,PWDx_District 06: West Roxbury and Roslindale,PWDx,,,INTERSECTION of Brook Farm Rd & Baker St  West Roxbury  MA  ,12,06,6,E5,West Roxbury,12,20,2017,INTERSECTION Brook Farm Rd & Baker St,,42.28973265737898,-71.17274954648899,0101000020E61000006B241D540ECB51C05103B0F515254540,Constituent Call
101002321901,2018-01-10 02:15:00,2018-01-11 03:30:00,2018-01-10 03:19:45,ONTIME,Closed,Case Closed. Closed date : 2018-01-10 08:19:45.097 Case Resolved Picked up ,Pick up Dead Animal,Public Works Department,Street Cleaning,Pick up Dead Animal,PWDx_District 06: West Roxbury and Roslindale,PWDx,,,INTERSECTION of Baker St & VFW Pkwy  West Roxbury  MA  ,12,06,6,E5,West Roxbury,12,20,2017,INTERSECTION Baker St & VFW Pkwy,,42.28745669245996,-71.17159759326402,0101000020E61000000BC97874FBCA51C0E0908261CB244540,Constituent Call
101002322023,2018-01-10 02:57:00,2018-01-11 03:30:00,2018-01-10 04:30:37,ONTIME,Closed,Case Closed. Closed date : 2018-01-10 09:30:37.73 Case Resolved Duplicate case.. raccoon removed ,Pick up Dead Animal,Public Works Department,Street Cleaning,Pick up Dead Animal,PWDx_District 06: West Roxbury and Roslindale,PWDx,,,20-22 Symmes St  Roslindale  MA  02131,9,06,5,E5,Roslindale,10,Ward 20,2004,20-22 Symmes St,2131.0,42.28958962732273,-71.13140076541816,0101000020E6100000FC88C1DE68C851C0544EDD4511254540,Constituent Call
101002322087,2018-01-10 03:17:18,2018-01-11 03:30:00,2018-01-10 04:30:09,ONTIME,Closed,Case Closed. Closed date : 2018-01-10 09:30:09.59 Case Resolved Raccoon removed from the street ,Pick up Dead Animal,Public Works Department,Street Cleaning,Pick up Dead Animal,PWDx_District 06: West Roxbury and Roslindale,PWDx,,,19 Symmes St  Roslindale  MA  02131,9,06,5,E5,Roslindale,10,Ward 20,2004,19 Symmes St,2131.0,42.28978962611497,-71.13104076375075,0101000020E610000026B0CCF862C851C0227193D317254540,Citizens Connect App
101002322352,2018-01-10 04:41:00,2018-05-10 05:41:20,2018-02-13 04:44:43,ONTIME,Closed,Case Closed. Closed date : 2018-02-13 09:44:43.18 : ,Bed Bugs,Inspectional Services,Housing,Bed Bugs,ISD_Housing (INTERNAL),ISD,,,499 Huntington Ave  Boston  MA  02115,4,10A,7,D4,Boston,13,04,0409,499 Huntington Ave,2115.0,42.33789274587786,-71.09563059835718,0101000020E6100000391CCDCF1EC651C0EF8CCA11402B4540,Constituent Call
101002322393,2018-01-10 04:55:20,2018-01-11 04:55:20,2018-01-10 05:48:05,ONTIME,Closed,Case Closed. Closed date : 2018-01-10 10:48:05.44 Case Resolved Look around area no dead animal need a better location Thank you  (notice) ,Pick up Dead Animal,Public Works Department,Street Cleaning,Pick up Dead Animal,PWDx_District 07: South Dorchester,PWDx,,,51 Richview St  Dorchester  MA  02124,8,07,3,C11,Dorchester,7,Ward 16,1611,51 Richview St,2124.0,42.2774595306532,-71.06157063477555,0101000020E610000051B0F5C5F0C351C03B0F3DCB83234540,Citizens Connect App
101002322428,2018-01-10 05:11:00,2018-01-11 05:11:14,2018-01-10 06:03:13,ONTIME,Closed,Case Closed. Closed date : 2018-01-10 11:03:13.927 Case Resolved Dead animal picked up ,Pick up Dead Animal,Public Works Department,Street Cleaning,Pick up Dead Animal,PWDx_District 03: North Dorchester,PWDx,,,15 Michigan Ave  Dorchester  MA  02121,7,03,4,B3,Greater Mattapan,13,Ward 14,1403,15 Michigan Ave,2121.0,42.30267955977989,-71.08384062820761,0101000020E6100000940E15A55DC551C00E362D34BE264540,Constituent Call
101002322589,2018-01-10 06:13:00,2018-01-11 06:13:51,2018-01-10 06:17:01,ONTIME,Closed,Case Closed Case Noted  Space savers will be collected during regular trash pick up  ,Pick up Dead Animal,Public Works Department,Street Cleaning,Pick up Dead Animal,PWDx_District 1A: Charlestown,PWDx,,,5 Armory St  Charlestown  MA  02129,3,1A,1,A15,Charlestown,2,Ward 2,0207,5 Armory St,2129.0,42.38152153315442,-71.07028042155234,0101000020E6100000730774797FC451C01BCF95B2D5304540,Employee Generated
101002322676,2018-01-10 06:56:00,2018-01-11 06:56:09,2018-01-12 02:18:04,OVERDUE,Closed,Case Closed. Closed date : 2018-01-12 07:18:04.653 Case Noted Nothing found at said location  needs better location ,Pick up Dead Animal,Public Works Department,Street Cleaning,Pick up Dead Animal,PWDx_District 05: South Boston,PWDx,,,940 E Broadway  South Boston  MA  02127,6,05,2,C6,South Boston / South Boston Waterfront,5,Ward 6,0609,940 E Broadway,2127.0,42.33599947958627,-71.0262904245139,0101000020E61000000D5F08BEAEC151C0E525EC07022B4540,Employee Generated
101002322679,2018-01-10 06:58:00,2018-05-10 07:58:11,,OVERDUE,Open, ,Pest Infestation - Residential,Inspectional Services,Housing,Pest Infestation - Residential,ISD_Housing (INTERNAL),ISD,,,499 Huntington Ave  Boston  MA  02115,4,10A,7,D4,Boston,13,04,0409,499 Huntington Ave,2115.0,42.33789274587786,-71.09563059835718,0101000020E6100000391CCDCF1EC651C0EF8CCA11402B4540,Constituent Call
101002322863,2018-01-10 08:35:00,2018-01-11 08:35:44,,OVERDUE,Open, ,Pick up Dead Animal,Public Works Department,Street Cleaning,Pick up Dead Animal,INFO01_GenericeFormforOtherServiceRequestTypes,INFO,,,39-43 Smith St  Mission Hill  MA  02120,9,10A,8,B2,Mission Hill,13,10,1001,39-43 Smith St,2120.0,42.333962971842,-71.09865039076514,0101000020E6100000BB84BA4950C651C07411754CBF2A4540,Citizens Connect App
101002323096,2018-01-10 10:45:00,,,ONTIME,Open, ,Animal Generic Request,Animal Control,Animal Issues,Animal Generic Request,INFO01_GenericeFormforOtherServiceRequestTypes,INFO,,,660 Huntington Ave  Mission Hill  MA  02120,9,10A,8,B2,Mission Hill,14,10,1001,660 Huntington Ave,2120.0,42.33517901482544,-71.10148199183247,0101000020E61000006B0353AE7EC651C0897D5D25E72A4540,Constituent Call
101002323097,2018-01-10 10:46:00,,,ONTIME,Open, ,Animal Generic Request,Animal Control,Animal Issues,Animal Generic Request,INFO01_GenericeFormforOtherServiceRequestTypes,INFO,,,910 South St  Roslindale  MA  02131,9,06,5,E5,Roslindale,10,20,2004,910 South St,2131.0,42.28742986422641,-71.13534973584682,0101000020E6100000FF3EF091A9C851C0825F7580CA244540,Constituent Call
101002323193,2018-01-10 11:33:00,2018-01-11 11:33:24,2018-01-10 13:08:34,ONTIME,Closed,Case Closed. Closed date : 2018-01-10 18:08:34.527 Case Resolved Dead Bunny in bag picked up ,Pick up Dead Animal,Public Works Department,Street Cleaning,Pick up Dead Animal,PWDx_District 1A: Charlestown,PWDx,,,5 Armory St  Charlestown  MA  02129,3,1A,1,A15,Charlestown,2,Ward 2,0207,5 Armory St,2129.0,42.38152153315442,-71.07028042155234,0101000020E6100000730774797FC451C01BCF95B2D5304540,Constituent Call
101002323198,2018-01-10 11:35:00,2018-05-10 12:35:06,,OVERDUE,Open, ,Pest Infestation - Residential,Inspectional Services,Housing,Pest Infestation - Residential,ISD_Housing (INTERNAL),ISD,,,15 Basile St  Roslindale  MA  02131,12,06,5,E5,Roslindale,10,19,1913,15 Basile St,2131.0,42.28644962157869,-71.12684076153013,0101000020E610000096A4B6281EC851C0E7509661AA244540,Citizens Connect App
101002323640,2018-01-10 16:44:00,2018-01-12 03:30:00,2018-01-10 18:19:28,ONTIME,Closed,Case Closed. Closed date : 2018-01-10 23:19:28.53 Case Resolved Walked all around intersection of shawut avenue and e Berkeley street unable to locate rodent ,Pick up Dead Animal,Public Works Department,Street Cleaning,Pick up Dead Animal,PWDx_District 1C: Downtown,PWDx,,https://cityworker.cityofboston.gov:8443/attachments/report/5a56d026d052a443db685637/closed_photo/Report.jpg,INTERSECTION of E Berkeley St & Shawmut Ave  Roxbury  MA  ,4,1C,2,D4,South End,4,3,0307,INTERSECTION E Berkeley St & Shawmut Ave,,42.34431889353293,-71.06706082878998,0101000020E6100000B89F80B94AC451C0368F39A4122C4540,Constituent Call
101002323662,2018-01-10 17:28:00,,,ONTIME,Open, ,Animal Generic Request,Animal Control,Animal Issues,Animal Generic Request,INFO01_GenericeFormforOtherServiceRequestTypes,INFO,,,16 Butler St  Dorchester  MA  02124,8,07,3,C11,Dorchester,7,Ward 17,1713,16 Butler St,2124.0,42.27355953456878,-71.06406064876779,0101000020E6100000C4DAD59119C451C0AF3DB3FF03234540,Constituent Call
101002323666,2018-01-10 17:37:00,,2018-02-26 04:25:51,ONTIME,Closed,Case Closed. Closed date : 2018-02-26 09:25:51.44 Case Resolved Animal control was notified of this comlpaint on 1/10/18 and will investigate the barking dog issue. Thank you. ,Animal Noise Disturbances,Animal Control,Animal Issues,Animal Noise Disturbances,INFO01_GenericeFormforOtherServiceRequestTypes,INFO,,,33 Hall St  Jamaica Plain  MA  02130,9,02,6,E13,Jamaica Plain,11,Ward 11,1110,33 Hall St,2130.0,42.30466959945442,-71.11323069036159,0101000020E61000006B00F02B3FC751C0FFDED669FF264540,Constituent Call
101002323801,2018-01-11 02:35:00,2018-01-12 03:30:00,2018-01-16 03:49:32,OVERDUE,Closed,Case Closed. Closed date : 2018-01-16 08:49:32.09 Case Resolved animal removed ,Pick up Dead Animal,Public Works Department,Street Cleaning,Pick up Dead Animal,PARK_Maintenance_Region 1,PARK,,,INTERSECTION of Spruce St & Beacon St  Boston  MA  ,3,1C,7,A1,Beacon Hill,14,5,0503,INTERSECTION Spruce St & Beacon St,,42.35657446018864,-71.06761533196956,0101000020E61000001EE141CF53C451C0AE8C5E3BA42D4540,Citizens Connect App
101002323886,2018-01-11 03:14:00,2018-01-12 03:30:00,2018-01-11 03:36:29,ONTIME,Closed,Case Closed. Closed date : 2018-01-11 08:36:29.497 Case Resolved Gobble gobble ,Pick up Dead Animal,Public Works Department,Street Cleaning,Pick up Dead Animal,PWDx_District 03: North Dorchester,PWDx,,,49 Grampian Way  Dorchester  MA  02125,7,03,3,C11,Dorchester,7,Ward 13,1310,49 Grampian Way,2125.0,42.31168951224787,-71.04973053182854,0101000020E61000003EF4F7C82EC351C02ECE2271E5274540,Constituent Call
101002323928,2018-01-11 03:28:35,2018-01-12 03:30:00,2018-01-12 06:03:46,OVERDUE,Closed,Case Closed. Closed date : 2018-01-12 11:03:46.803 Case Resolved ,Pick up Dead Animal,Public Works Department,Street Cleaning,Pick up Dead Animal,PWDx_District 1C: Downtown,PWDx,,,52 Plympton St  Roxbury  MA  02118,4,1C,2,D4,South End,6,Ward 8,0801,52 Plympton St,2118.0,42.338717533525184,-71.0675655117908,0101000020E6100000A8DE4BFE52C451C046899C185B2B4540,Citizens Connect App
101002324062,2018-01-11 04:10:00,2018-05-11 05:10:20,,OVERDUE,Open, ,Pest Infestation - Residential,Inspectional Services,Housing,Pest Infestation - Residential,ISD_Housing (INTERNAL),ISD,,,118 Gladstone St  East Boston  MA  02128,1,09,1,A7,East Boston,1,Ward 1,0113,118 Gladstone St,2128.0,42.389219451327385,-71.00547025966148,0101000020E61000003096EE9F59C051C0873567F1D1314540,Self Service
101002324115,2018-01-11 04:30:11,2018-01-12 04:30:11,2018-01-11 05:48:58,ONTIME,Closed,Case Closed. Closed date : 2018-01-11 10:48:58.803 Case Resolved Dead animal picked up ,Pick up Dead Animal,Public Works Department,Street Cleaning,Pick up Dead Animal,PWDx_District 04: Allston/Brighton,PWDx,,,123-125 N Beacon St  Brighton  MA  02135,11,04,9,D14,Allston / Brighton,15,Ward 22,2205,123-125 N Beacon St,2135.0,42.35500063196541,-71.14383164588865,0101000020E61000002FCEA58934C951C0E62C24A9702D4540,Citizens Connect App
101002324472,2018-01-11 07:17:00,2018-05-11 08:17:57,2018-10-09 11:32:26,OVERDUE,Closed,Case Closed. Closed date : 2018-10-09 15:32:26.88 : ,Pest Infestation - Residential,Inspectional Services,Housing,Pest Infestation - Residential,ISD_Housing (INTERNAL),ISD,,,705 River St  Mattapan  MA  02126,8,08,5,E18,Hyde Park,9,Ward 18,1805,705 River St,2126.0,42.26456959029079,-71.10257075609896,0101000020E610000025BEEE8490C651C054E8946ADD214540,Constituent Call
101002324583,2018-01-11 08:32:35,2018-01-12 08:32:35,2018-01-11 11:20:24,ONTIME,Closed,Case Closed. Closed date : 2018-01-11 16:20:24.357 Case Resolved It's all set  ,Pick up Dead Animal,Public Works Department,Street Cleaning,Pick up Dead Animal,PWDx_District 04: Allston/Brighton,PWDx,,,INTERSECTION of Gardner St & Linden St  Allston  MA  ,11,04,8,D14,Allston / Brighton,15,21,2104,INTERSECTION Gardner St & Linden St,,42.35358291608904,-71.13015378817401,0101000020E61000001BEA8D7054C851C06C837A34422D4540,Citizens Connect App
101002324736,2018-01-11 09:53:00,2018-05-11 10:53:50,2018-10-10 11:56:12,OVERDUE,Closed,Case Closed. Closed date : 2018-10-10 15:56:12.037 : ,Bed Bugs,Inspectional Services,Housing,Bed Bugs,ISD_Housing (INTERNAL),ISD,,,335 Washington St  Brighton  MA  02135,11,04,9,D14,Allston / Brighton,15,Ward 22,2203,335 Washington St,2135.0,42.34921664400287,-71.1523156783568,0101000020E6100000794D428ABFC951C0089B8821B32C4540,Constituent Call
101002324735,2018-01-11 09:53:43,2018-01-12 09:53:43,2018-01-11 13:39:01,ONTIME,Closed,Case Closed. Closed date : 2018-01-11 18:39:01.803 Case Noted I  cannot see any thing in this location  ,Pick up Dead Animal,Public Works Department,Street Cleaning,Pick up Dead Animal,PWDx_District 09: East Boston,PWDx,,,99 Faywood Ave  East Boston  MA  02128,1,09,1,A7,East Boston,1,Ward 1,0114,99 Faywood Ave,2128.0,42.39182944862127,-71.00347024941264,0101000020E61000001FEF47DB38C051C013B8A57727324540,Citizens Connect App
101002324737,2018-01-11 09:54:06,2018-01-12 09:54:06,2018-01-11 13:37:47,ONTIME,Closed,Case Closed. Closed date : 2018-01-11 18:37:47.253 Case Noted I'm not able to see any thing in this location please give us specific location thanks  ,Pick up Dead Animal,Public Works Department,Street Cleaning,Pick up Dead Animal,PWDx_District 09: East Boston,PWDx,,,107 Faywood Ave  East Boston  MA  02128,1,09,1,A7,East Boston,1,Ward 1,0114,107 Faywood Ave,2128.0,42.391939449264136,-71.00384024996515,0101000020E610000090002DEB3EC051C0054D66122B324540,Citizens Connect App
101002324774,2018-01-11 10:19:00,2018-05-11 11:19:10,,OVERDUE,Open, ,Pest Infestation - Residential,Inspectional Services,Housing,Pest Infestation - Residential,ISD_Housing (INTERNAL),ISD,,,575 Shawmut Ave  Roxbury  MA  02118,7,10B,7,D4,Roxbury,13,09,0903,575 Shawmut Ave,2118.0,42.336519550100576,-71.07962054347811,0101000020E61000000295C38018C551C0C4129712132B4540,Constituent Call
101002324897,2018-01-11 11:33:00,2018-01-12 11:33:45,2018-01-11 14:24:37,ONTIME,Closed,Case Closed. Closed date : 2018-01-11 19:24:37.09 Case Noted We need a better location for this case because I don't see any thing in this location  ,Pick up Dead Animal,Public Works Department,Street Cleaning,Pick up Dead Animal,PWDx_District 1C: Downtown,PWDx,,,INTERSECTION of E Berkeley St & Shawmut Ave  Roxbury  MA  ,4,1C,2,D4,South End,4,3,0307,INTERSECTION E Berkeley St & Shawmut Ave,,42.34431889353293,-71.06706082878998,0101000020E6100000B89F80B94AC451C0368F39A4122C4540,Constituent Call
101002324928,2018-01-11 11:53:00,,2018-02-26 04:39:26,ONTIME,Closed,Case Closed. Closed date : 2018-02-26 09:39:26.153 Case Resolved Animal control was notified on 1/11 and will investigate the barking dog issue. ,Animal Generic Request,Animal Control,Animal Issues,Animal Generic Request,INFO01_GenericeFormforOtherServiceRequestTypes,INFO,,,73 Cushing Ave  Dorchester  MA  02125,7,03,3,C11,Dorchester,7,Ward 13,1306,73 Cushing Ave,2125.0,42.31372953103848,-71.0638105588147,0101000020E6100000E9CFE17815C451C0C2CC0D4A28284540,Constituent Call
101002324980,2018-01-11 12:38:00,,2018-02-01 11:42:46,ONTIME,Closed,Case Closed. Closed date : 2018-02-01 16:42:46.417 Case Noted ACO was unable to locate the raccoon.   Thank you! ,Animal Generic Request,Animal Control,Animal Issues,Animal Generic Request,INFO01_GenericeFormforOtherServiceRequestTypes,INFO,,,130 River St  Mattapan  MA  02126,8,07,4,B3,Greater Mattapan,9,Ward 18,1801,130 River St,2126.0,42.27116255300855,-71.07687868307029,0101000020E6100000F9629194EBC451C02A895C74B5224540,Constituent Call
101002325213,2018-01-11 15:40:00,,,ONTIME,Open, ,Animal Noise Disturbances,Animal Control,Animal Issues,Animal Noise Disturbances,INFO01_GenericeFormforOtherServiceRequestTypes,INFO,,,INTERSECTION of Oak St W & Shawmut Ave  Boston  MA  ,4,1C,2,A1,Downtown / Financial District,4,3,0308,INTERSECTION Oak St W & Shawmut Ave,,42.3486159136372,-71.0655437609959,0101000020E6100000CA7B75DE31C451C0EDF73D729F2C4540,Constituent Call
101002325234,2018-01-11 16:06:00,2018-05-11 17:06:39,,OVERDUE,Open, ,Bed Bugs,Inspectional Services,Housing,Bed Bugs,ISD_Housing (INTERNAL),ISD,,,499 Huntington Ave  Boston  MA  02115,4,10A,7,D4,Boston,13,04,0409,499 Huntington Ave,2115.0,42.33789274587786,-71.09563059835718,0101000020E6100000391CCDCF1EC651C0EF8CCA11402B4540,Constituent Call
101002325304,2018-01-11 19:57:00,,2018-02-01 08:05:22,ONTIME,Closed,Case Closed. Closed date : 2018-02-01 13:05:22.367 Case Resolved The dog was returned to the owner.   Thank you! ,Animal Found,Animal Control,Animal Issues,Animal Found,ANML02_LostFound,ANML,,,6 Rosedale St  Dorchester  MA  02124,8,07,4,B3,Dorchester,9,17,1703,6 Rosedale St,2124.0,42.29263954434008,-71.07216062469502,0101000020E6100000F0C798479EC451C07F3A6C3675254540,Constituent Call
101002325460,2018-01-12 03:04:31,2018-01-15 03:30:00,2018-01-12 03:49:45,ONTIME,Closed,Case Closed. Closed date : 2018-01-12 08:49:45.163 Case Resolved Picked up dead animal  ,Pick up Dead Animal,Public Works Department,Street Cleaning,Pick up Dead Animal,PWDx_District 03: North Dorchester,PWDx,,,5 Clarkson St  Dorchester  MA  02125,7,03,3,C11,Dorchester,8,15,1504,5 Clarkson St,2125.0,42.30959978970387,-71.06581593857356,0101000020E6100000A8EE0D5436C451C034D045F7A0274540,Citizens Connect App
101002325491,2018-01-12 03:15:00,,2018-02-01 08:04:26,ONTIME,Closed,Case Closed. Closed date : 2018-02-01 13:04:26.833 Case Resolved This call was cancelled.   Thank you! ,Animal Found,Animal Control,Animal Issues,Animal Found,ANML02_LostFound,ANML,,,INTERSECTION of Peabody Sq & Dorchester Ave  Dorchester  MA  ,8,07,4,C11,Dorchester,7,16,1606,INTERSECTION Peabody Sq & Dorchester Ave,,42.286239729834094,-71.06416829028086,0101000020E6100000940C51551BC451C0063AE380A3244540,Constituent Call
101002325610,2018-01-12 04:06:00,2018-05-12 05:06:52,,OVERDUE,Open, ,Pest Infestation - Residential,Inspectional Services,Housing,Pest Infestation - Residential,ISD_Housing (INTERNAL),ISD,,,270 Centre St  Jamaica Plain  MA  02130,9,10A,6,E13,Jamaica Plain,11,10,1007,270 Centre St,2130.0,42.32268551683372,-71.10101344584783,0101000020E6100000DA97190177C651C0CAD84EC24D294540,Constituent Call
101002325658,2018-01-12 04:26:09,2018-05-12 05:26:09,,OVERDUE,Open, ,Pest Infestation - Residential,Inspectional Services,Housing,Pest Infestation - Residential,ISD_Housing (INTERNAL),ISD,,,405 Columbus Ave  Boston  MA  02116,4,1C,2,D4,South End,6,Ward 4,0403,405 Columbus Ave,2116.0,42.34465954585909,-71.07705051951709,0101000020E6100000CE5D4D65EEC451C008DCD2CD1D2C4540,Constituent Call
101002325668,2018-01-12 04:32:29,2018-01-15 04:32:28,2018-01-12 04:57:53,ONTIME,Closed,Case Closed. Closed date : 2018-01-12 09:57:53.8 Case Resolved Picked up dead animal  ,Pick up Dead Animal,Public Works Department,Street Cleaning,Pick up Dead Animal,PWDx_District 03: North Dorchester,PWDx,,,INTERSECTION of Clarkson St & Hendry St  Dorchester  MA  ,7,03,3,C11,Dorchester,8,15,1504,INTERSECTION Clarkson St & Hendry St,,42.30974715994749,-71.06543991359821,0101000020E61000007930E42A30C451C06E0081CBA5274540,Citizens Connect App
101002325736,2018-01-12 05:01:00,2018-05-12 06:01:21,2018-02-08 08:46:49,ONTIME,Closed,Case Closed. Closed date : 2018-02-08 13:46:49.423 closed cased and opened a new one  ,Bed Bugs,Inspectional Services,Housing,Bed Bugs,ISD_Housing (INTERNAL),ISD,,,173 Columbia Rd  Dorchester  MA  02121,7,03,4,C11,Roxbury,13,Ward 14,1401,173 Columbia Rd,2121.0,42.30609955031401,-71.0774406065458,0101000020E6100000C91F72C9F4C451C0A1F522452E274540,Constituent Call
101002325949,2018-01-12 06:47:00,,2018-02-26 04:40:38,ONTIME,Closed,Case Closed. Closed date : 2018-02-26 09:40:38.803 Case Resolved Animal control was notified on 1/12 and will investigate the complaint. ,Animal Generic Request,Animal Control,Animal Issues,Animal Generic Request,INFO01_GenericeFormforOtherServiceRequestTypes,INFO,,,560 Shawmut Ave  Roxbury  MA  02118,7,10B,7,D4,Roxbury,13,Ward 9,0903,560 Shawmut Ave,2118.0,42.33655954916412,-71.07892054181711,0101000020E61000009385BE080DC551C080682062142B4540,Constituent Call
101002326152,2018-01-12 08:28:00,2018-05-12 09:28:03,,OVERDUE,Open, ,Pest Infestation - Residential,Inspectional Services,Housing,Pest Infestation - Residential,ISD_Housing (INTERNAL),ISD,,,631 Harrison Ave  Roxbury  MA  02118,4,1C,2,D4,Roxbury,6,08,0801,631 Harrison Ave,2118.0,42.33896953650719,-71.07043051729417,0101000020E6100000CE1A00EF81C451C0BFD1905A632B4540,Constituent Call
101002326429,2018-01-12 11:54:11,2018-01-15 11:54:11,2018-01-12 12:34:25,ONTIME,Closed,Case Closed. Closed date : 2018-01-12 17:34:25.413 Case Resolved Pick up dead animal and picked up trash bag ,Pick up Dead Animal,Public Works Department,Street Cleaning,Pick up Dead Animal,PWDx_District 1C: Downtown,PWDx,,,528 Massachusetts Ave  Roxbury  MA  02118,4,1C,7,D4,South End,6,Ward 9,0902,528 Massachusetts Ave,2118.0,42.33892954988544,-71.07935053785937,0101000020E6100000AA41471414C551C0F633220B622B4540,Citizens Connect App
101002326676,2018-01-13 02:33:00,,2018-02-26 04:38:13,ONTIME,Closed,Case Closed. Closed date : 2018-02-26 09:38:13.57 Case Resolved Animal control was notified on 1/16 and will investigate ,Animal Generic Request,Animal Control,Animal Issues,Animal Generic Request,INFO01_GenericeFormforOtherServiceRequestTypes,INFO,,,INTERSECTION of Brackett St & Faneuil St  Brighton  MA  ,11,04,8,D14,Allston / Brighton,15,22,2207,INTERSECTION Brackett St & Faneuil St,,42.35198679626201,-71.16510071308589,0101000020E610000003D0940291CA51C0DA4841E70D2D4540,Constituent Call
101002326963,2018-01-13 06:06:00,,,ONTIME,Open, ,Animal Generic Request,Animal Control,Animal Issues,Animal Generic Request,INFO01_GenericeFormforOtherServiceRequestTypes,INFO,,,86 Lyndhurst St  Dorchester  MA  02124,8,07,4,C11,Dorchester,8,Ward 17,1706,86 Lyndhurst St,2124.0,42.29355953862153,-71.0681206133701,0101000020E6100000EAA68F165CC451C077E7E45B93254540,Constituent Call
101002327063,2018-01-13 07:30:26,2018-01-16 03:30:00,2018-01-13 13:56:52,ONTIME,Closed,Case Closed. Closed date : 2018-01-13 18:56:52.413 Case Resolved Picked up dead rat  ,Pick up Dead Animal,Public Works Department,Street Cleaning,Pick up Dead Animal,PWDx_District 1C: Downtown,PWDx,,,666 Massachusetts Ave  Roxbury  MA  02118,4,1C,2,D4,South End,6,Ward 8,0802,666 Massachusetts Ave,2118.0,42.33600954510108,-71.0759705365632,0101000020E6100000E87F86B3DCC451C02EAD5B5C022B4540,Citizens Connect App
101002327067,2018-01-13 07:33:00,2018-01-16 03:30:00,2018-01-14 07:23:07,ONTIME,Closed,Case Closed. Closed date : 2018-01-14 12:23:07.17 Case Resolved ,Pick up Dead Animal,Public Works Department,Street Cleaning,Pick up Dead Animal,PWDx_District 1A: Charlestown,PWDx,,,4-5 Payson Pl  Charlestown  MA  02129,3,1A,1,A15,Charlestown,2,Ward 2,0205,4-5 Payson Pl,2129.0,42.3769965869414,-71.06364468017449,0101000020E61000007CFA22C112C451C0F8CE956C41304540,Constituent Call
101002327104,2018-01-13 08:11:05,2018-01-16 03:30:00,2018-01-14 07:57:54,ONTIME,Closed,Case Closed. Closed date : 2018-01-14 12:57:54.387 Case Resolved ,Pick up Dead Animal,Public Works Department,Street Cleaning,Pick up Dead Animal,PWDx_District 1B: North End,PWDx,,,34-38 Lancaster St  Boston  MA  02114,3,1B,1,A1,Downtown / Financial District,3,Ward 3,0306,34-38 Lancaster St,2114.0,42.36427452513952,-71.06284944349491,0101000020E61000007A18ACB905C451C0BD1E328CA02E4540,Citizens Connect App
101002327116,2018-01-13 08:21:00,2018-01-16 03:30:00,2018-01-13 14:20:13,ONTIME,Closed,Case Closed. Closed date : 2018-01-13 19:20:13.787 Case Resolved Picked up 2 dead rats  ,Pick up Dead Animal,Public Works Department,Street Cleaning,Pick up Dead Animal,PWDx_District 1C: Downtown,PWDx,,,308 Marlborough St  Boston  MA  02116,4,1C,8,D4,Back Bay,14,Ward 5,0508,308 Marlborough St,2116.0,42.351129554443766,-71.08427052091193,0101000020E61000005AD52EB064C551C05D7F30D0F12C4540,Constituent Call
101002327120,2018-01-13 08:24:00,,2018-02-01 08:06:16,ONTIME,Closed,Case Closed. Closed date : 2018-02-01 13:06:16.813 Case Noted ACO responded to the location and was unable to locate the dog.   Thank you! ,Animal Generic Request,Animal Control,Animal Issues,Animal Generic Request,INFO01_GenericeFormforOtherServiceRequestTypes,INFO,,,1184 Morton St  Mattapan  MA  02126,8,07,3,B3,Dorchester,7,Ward 17,1712,1184 Morton St,2126.0,42.27528954665701,-71.07232066389494,0101000020E61000003E90D9E6A0C451C049E917B03C234540,Constituent Call
101002327188,2018-01-13 09:06:00,2018-01-16 03:30:00,2018-01-14 08:05:44,ONTIME,Closed,Case Closed. Closed date : 2018-01-14 13:05:44.123 Case Resolved ,Pick up Dead Animal,Public Works Department,Street Cleaning,Pick up Dead Animal,PWDx_District 1B: North End,PWDx,,,83 Pinckney St  Boston  MA  02114,3,1B,8,A1,Beacon Hill,14,Ward 5,0504,83 Pinckney St,2114.0,42.35894953330008,-71.06876046862772,0101000020E6100000E0004F9266C451C01B38ED0EF22D4540,Constituent Call
101002327187,2018-01-13 09:06:37,2018-01-16 03:30:00,2018-01-13 09:24:26,ONTIME,Closed,Case Closed. Closed date : 2018-01-13 14:24:26.443 Case Resolved Picked up ,Pick up Dead Animal,Public Works Department,Street Cleaning,Pick up Dead Animal,PWDx_District 03: North Dorchester,PWDx,,,INTERSECTION of Cushing Ave & Rowell St  Dorchester  MA  ,7,03,3,C11,Dorchester,7,13,1306,INTERSECTION Cushing Ave & Rowell St,,42.314112624602046,-71.06424069334469,0101000020E6100000383FFF841CC451C098F6ACD734284540,Citizens Connect App
101002327196,2018-01-13 09:16:20,2018-01-16 03:30:00,2018-01-13 11:43:01,ONTIME,Closed,Case Closed. Closed date : 2018-01-13 16:43:01.717 Case Resolved Picked up dead animal  ,Pick up Dead Animal,Public Works Department,Street Cleaning,Pick up Dead Animal,PWDx_District 06: West Roxbury and Roslindale,PWDx,,,1078 South St  West Roxbury  MA  02132,9,06,6,E5,Roslindale,10,Ward 20,2007,1078 South St,2132.0,42.28789964481988,-71.14404079740653,0101000020E6100000A789E4F637C951C0058443E5D9244540,Citizens Connect App
101002327265,2018-01-13 10:56:00,2018-05-13 11:56:24,2018-04-20 06:16:33,ONTIME,Closed,Case Closed. Closed date : 2018-04-20 10:16:33.39 : ,Bed Bugs,Inspectional Services,Housing,Bed Bugs,ISD_Housing (INTERNAL),ISD,,,100 City Hall Plz  Boston  MA  02108,3,1B,1,A1,Downtown / Financial District,3,Ward 3,0306,100 City Hall Plz,2108.0,42.35951952062117,-71.05875044525048,0101000020E61000007B3E3A91C2C351C0B7AB53BC042E4540,Self Service
101002327269,2018-01-13 10:58:00,2018-05-13 11:58:10,2018-02-01 09:33:02,ONTIME,Closed,Case Closed. Closed date : 2018-02-01 14:33:02.503 VIOCOR: Violation Corrected ,Pest Infestation - Residential,Inspectional Services,Housing,Pest Infestation - Residential,ISD_Housing (INTERNAL),ISD,,,520 Beacon St  Boston  MA  02215,4,10A,8,D4,Back Bay,14,Ward 5,0509,520 Beacon St,2215.0,42.35075956290123,-71.09068053663364,0101000020E61000006ACEBCB5CDC551C0C4B579B0E52C4540,Citizens Connect App
101002327299,2018-01-13 11:33:56,2018-01-16 03:30:00,2018-01-13 12:27:47,ONTIME,Closed,Case Closed. Closed date : 2018-01-13 17:27:47.987 Case Resolved Picked up dead white rabbit ,Pick up Dead Animal,Public Works Department,Street Cleaning,Pick up Dead Animal,PWDx_District 02: Jamaica Plain,PWDx,,,9 Myrtle St  Jamaica Plain  MA  02130,9,02,6,E13,Jamaica Plain,11,Ward 19,1905,9 Myrtle St,2130.0,42.31384960059945,-71.11514067401224,0101000020E61000009B54FD765EC751C0F93745392C284540,Citizens Connect App
101002327333,2018-01-13 12:16:00,2018-01-16 03:30:00,2018-01-13 13:16:29,ONTIME,Closed,Case Closed. Closed date : 2018-01-13 18:16:29.12 Case Resolved Picked up dead racoon  ,Pick up Dead Animal,Public Works Department,Street Cleaning,Pick up Dead Animal,PWDx_District 07: South Dorchester,PWDx,,,121 Orlando St  Mattapan  MA  02126,8,07,5,B3,Mattapan,9,18,1821,121 Orlando St,2126.0,42.27365958568245,-71.10024073064962,0101000020E610000081F718586AC651C01C5FFD4607234540,Constituent Call
101002327366,2018-01-13 13:12:00,2018-01-16 03:30:00,2018-01-14 02:42:35,ONTIME,Closed,Case Closed. Closed date : 2018-01-14 07:42:35.647 Case Resolved Skunk picked up  ,Pick up Dead Animal,Public Works Department,Street Cleaning,Pick up Dead Animal,PWDx_District 09: East Boston,PWDx,,,90 Falcon St  East Boston  MA  02128,1,09,1,A7,East Boston,1,Ward 1,0108,90 Falcon St,2128.0,42.38212948940567,-71.03567034264356,0101000020E6100000D6C5426C48C251C0D2EA7D9EE9304540,Constituent Call
101002327378,2018-01-13 13:35:00,,2018-02-01 08:07:48,ONTIME,Closed,Case Closed. Closed date : 2018-02-01 13:07:48.13 Case Resolved ACO transported the dog to the shelter.   Thank you! ,Animal Found,Animal Control,Animal Issues,Animal Found,ANML02_LostFound,ANML,,,111 Williams Ave  Hyde Park  MA  02136,12,08,5,E18,Hyde Park,10,Ward 18,1817,111 Williams Ave,2136.0,42.2470596262203,-71.11575082165561,0101000020E6100000BE5F227668C751C09B635BA69F1F4540,Constituent Call
101002327394,2018-01-13 14:01:35,2018-01-16 03:30:00,2018-01-14 02:56:15,ONTIME,Closed,Case Closed. Closed date : 2018-01-14 07:56:15.557 Case Resolved Picked up  ,Pick up Dead Animal,Public Works Department,Street Cleaning,Pick up Dead Animal,PWDx_District 03: North Dorchester,PWDx,,,INTERSECTION of Woodcliff St & Blue Hill Ave  Roxbury  MA  ,7,03,9,B2,Roxbury,13,12,1204,INTERSECTION Woodcliff St & Blue Hill Ave,,42.31624464853353,-71.07816866437305,0101000020E6100000794324B700C551C0467E63B47A284540,Citizens Connect App
101002327448,2018-01-13 16:44:04,2018-01-16 03:30:00,2018-01-14 02:42:58,ONTIME,Closed,Case Closed. Closed date : 2018-01-14 07:42:58.47 Case Resolved Skunk picked up  ,Pick up Dead Animal,Public Works Department,Street Cleaning,Pick up Dead Animal,PWDx_District 09: East Boston,PWDx,,,92 Falcon St  East Boston  MA  02128,1,09,1,A7,East Boston,1,Ward 1,0108,92 Falcon St,2128.0,42.38212948927901,-71.03557034320565,0101000020E6100000A631D5C846C251C030A57D9EE9304540,Citizens Connect App
101002327476,2018-01-13 18:32:00,,2018-02-23 09:37:31,ONTIME,Closed,Case Closed. Closed date : 2018-02-23 14:37:31.55 Case Resolved Animal control was notified of this complaint on 1/13 and will investigate. Thank you. ,Animal Noise Disturbances,Animal Control,Animal Issues,Animal Noise Disturbances,INFO01_GenericeFormforOtherServiceRequestTypes,INFO,,,7 Pasadena Rd  Dorchester  MA  02121,7,03,4,B2,Roxbury,13,Ward 14,1403,7 Pasadena Rd,2121.0,42.30506955674139,-71.08206061925385,0101000020E610000007FF2E7B40C551C0D09AEC840C274540,Constituent Call
101002327498,2018-01-13 20:58:00,2018-01-16 03:30:00,2018-01-13 22:52:05,ONTIME,Closed,Case Closed. Closed date : 2018-01-14 03:52:05.48 Case Resolved Picked up with help also put in freezer  ,Pick up Dead Animal,Public Works Department,Street Cleaning,Pick up Dead Animal,PWDx_District 06: West Roxbury and Roslindale,PWDx,,,4851 Washington St  West Roxbury  MA  02132,12,06,6,E5,West Roxbury,12,Ward 20,2010,4851 Washington St,2132.0,42.27084965182739,-71.14679084205527,0101000020E6100000B37E6A0565C951C0A65D8E33AB224540,Constituent Call
101002327569,2018-01-14 03:55:53,2018-01-16 03:30:00,2018-01-14 05:12:34,ONTIME,Closed,Case Closed. Closed date : 2018-01-14 10:12:34.92 Case Noted This is private property  ,Pick up Dead Animal,Public Works Department,Street Cleaning,Pick up Dead Animal,PWDx_District 1C: Downtown,PWDx,,,1654 Washington St  Roxbury  MA  02118,4,1C,2,D4,South End,6,Ward 8,0802,1654 Washington St,2118.0,42.33754954362971,-71.07502053126281,0101000020E61000005913EA22CDC451C0AD55CDD2342B4540,Citizens Connect App
101002327722,2018-01-14 06:51:00,2018-01-16 03:30:00,2018-01-14 07:23:32,ONTIME,Closed,Case Closed. Closed date : 2018-01-14 12:23:32.97 Case Resolved ,Pick up Dead Animal,Public Works Department,Street Cleaning,Pick up Dead Animal,PWDx_District 1A: Charlestown,PWDx,,,INTERSECTION of Payson Pl & Elm St  Charlestown  MA  ,3,1A,1,A15,Charlestown,2,2,0205,INTERSECTION Payson Pl & Elm St,,42.37716134602379,-71.06396596935903,0101000020E61000000E9DB80418C451C0673EAFD246304540,Constituent Call
101002327804,2018-01-14 08:54:00,2018-01-16 03:30:00,2018-01-26 11:18:42,OVERDUE,Closed,Case Closed. Closed date : 2018-01-26 16:18:42.36 Case Invalid Rowe's Wharf  privately managed.   ,Pick up Dead Animal,Public Works Department,Street Cleaning,Pick up Dead Animal,INFO_Reallocation From Dept,INFO,,,INTERSECTION of Foster's Whf & Atlantic Ave  Boston  MA  ,3,1C,2,A1,Downtown / Financial District,3,3,0306,INTERSECTION Foster's Whf & Atlantic Ave,,42.355863441221445,-71.05086078432582,0101000020E61000000355974D41C351C0AEF1E8EE8C2D4540,Citizens Connect App
101002327871,2018-01-14 10:14:00,,2018-02-01 08:07:05,ONTIME,Closed,Case Closed. Closed date : 2018-02-01 13:07:05.927 Case Resolved ACO transported the dog to the shelter.   Thank you! ,Animal Generic Request,Animal Control,Animal Issues,Animal Generic Request,INFO01_GenericeFormforOtherServiceRequestTypes,INFO,,,30 Rockingham Ave  West Roxbury  MA  02132,12,06,6,E5,West Roxbury,12,20,2005,30 Rockingham Ave,2132.0,42.26481966634946,-71.15611087650466,0101000020E6100000CB4879B8FDC951C07F275F9CE5214540,Constituent Call
101002328021,2018-01-14 15:22:00,2018-05-14 16:22:53,,OVERDUE,Open, ,Pest Infestation - Residential,Inspectional Services,Housing,Pest Infestation - Residential,ISD_Housing (INTERNAL),ISD,,,220 W Springfield St  Roxbury  MA  02118,4,1C,7,D4,South End,6,Ward 9,0902,220 W Springfield St,2118.0,42.34064955084144,-71.08078053659742,0101000020E6100000B6B520822BC551C06B218C679A2B4540,Citizens Connect App
101002328093,2018-01-15 02:16:19,2018-01-16 03:30:00,2018-01-15 06:42:27,ONTIME,Closed,Case Closed. Closed date : 2018-01-15 11:42:27.35 Case Resolved Look around area no dead animal need a better location  (notice) ,Pick up Dead Animal,Public Works Department,Street Cleaning,Pick up Dead Animal,PWDx_District 07: South Dorchester,PWDx,,,60 Norfolk St  Dorchester  MA  02124,8,07,4,B3,Dorchester,9,Ward 17,1708,60 Norfolk St,2124.0,42.2888615474215,-71.07402263763595,0101000020E6100000D8F371C9BCC451C0A79F496AF9244540,Citizens Connect App
101002328095,2018-01-15 02:19:51,2018-01-16 03:30:00,2018-01-18 01:18:38,OVERDUE,Closed,Case Closed. Closed date : 2018-01-18 06:18:38.677 Case Resolved ,Pick up Dead Animal,Public Works Department,Street Cleaning,Pick up Dead Animal,PWDx_District 1B: North End,PWDx,,,95 W Cedar St  Boston  MA  02114,3,1B,8,A1,Beacon Hill,14,Ward 5,0504,95 W Cedar St,2114.0,42.36066953476611,-71.06990046773475,0101000020E610000056B9CF3F79C451C0F33D586B2A2E4540,Citizens Connect App
101002328142,2018-01-15 03:55:00,,2018-02-01 08:09:59,ONTIME,Closed,Case Closed. Closed date : 2018-02-01 13:09:59.533 Case Resolved ACO released the bird from the callers bedroom.   Thank you! ,Animal Generic Request,Animal Control,Animal Issues,Animal Generic Request,INFO01_GenericeFormforOtherServiceRequestTypes,INFO,,,9 Louisburg Sq  Boston  MA  02108,3,1B,8,A1,Beacon Hill,14,Ward 5,0503,9 Louisburg Sq,2108.0,42.35841953368269,-71.06844046963063,0101000020E610000055B2225461C451C016B5F7B0E02D4540,Constituent Call
101002328305,2018-01-15 08:02:00,2018-01-16 08:02:56,2018-01-18 01:41:40,OVERDUE,Closed,Case Closed. Closed date : 2018-01-18 06:41:40.52 Case Resolved ,Pick up Dead Animal,Public Works Department,Street Cleaning,Pick up Dead Animal,PWDx_District 1B: North End,PWDx,,,15 Sudbury St  Boston  MA  02203,3,1B,2,A1,Boston,3,03,0306,15 Sudbury St,2203.0,42.36137398160965,-71.05931244687568,0101000020E6100000EAE46EC6CBC351C0C351AC80412E4540,Constituent Call
101002328337,2018-01-15 08:53:34,,,ONTIME,Open, ,Animal Generic Request,Animal Control,Animal Issues,Animal Generic Request,INFO01_GenericeFormforOtherServiceRequestTypes,INFO,,,122 Everett St  East Boston  MA  02128,1,09,1,A7,East Boston,1,Ward 1,0102,122 Everett St,2128.0,42.367099487802896,-71.03345037133563,0101000020E61000003DBB060D24C251C0F33EB31DFD2E4540,Constituent Call
101002328354,2018-01-15 09:10:00,2018-01-16 09:10:09,2018-01-15 11:58:06,ONTIME,Closed,Case Closed. Closed date : 2018-01-15 16:58:06.9 Case Noted Nothing found at location ,Pick up Dead Animal,Public Works Department,Street Cleaning,Pick up Dead Animal,PWDx_District 09: East Boston,PWDx,,,124 Everett St  East Boston  MA  02128,1,09,1,A7,East Boston,1,Ward 1,0102,124 Everett St,2128.0,42.36703948760902,-71.03335037113202,0101000020E61000009354986922C251C088CF6126FB2E4540,Constituent Call
101002328401,2018-01-15 10:08:00,,2018-01-15 10:36:50,ONTIME,Closed,Case Closed. Closed date : 2018-01-15 15:36:50.66 Case Resolved The goose is now dead  called DCR ,Animal Generic Request,Animal Control,Animal Issues,Animal Generic Request,INFO01_GenericeFormforOtherServiceRequestTypes,INFO,,,INTERSECTION of Boston University Brg & Commonwealth Ave  Boston  MA  ,11,04,7,D14,Allston / Brighton,14,21,2102,INTERSECTION Boston University Brg & Commonwealth Ave,,42.35088153595806,-71.11092074023266,0101000020E6100000D5EF4D5319C751C0E5DAA8AFE92C4540,Constituent Call
101002328406,2018-01-15 10:14:00,2018-01-16 10:14:20,2018-01-15 11:16:12,ONTIME,Closed,Case Closed. Closed date : 2018-01-15 16:16:12.333 Case Noted Nothing found upon arrival  ,Pick up Dead Animal,Public Works Department,Street Cleaning,Pick up Dead Animal,PWDx_District 10B: Roxbury,PWDx,,,1705 Columbus Ave  Roxbury  MA  02119,9,10B,6,E13,Jamaica Plain,11,Ward 11,1104,1705 Columbus Ave,2119.0,42.32032357755904,-71.09888962296192,0101000020E61000004122243554C651C07DE0EC5C00294540,Constituent Call
101002328434,2018-01-15 10:44:22,2018-01-16 10:44:21,2018-01-15 11:32:35,ONTIME,Closed,Case Closed. Closed date : 2018-01-15 16:32:35.24 Case Resolved Picked 2 ,Pick up Dead Animal,Public Works Department,Street Cleaning,Pick up Dead Animal,PWDx_District 03: North Dorchester,PWDx,,,134 Cushing Ave  Dorchester  MA  02125,7,03,3,C11,Dorchester,7,Ward 13,1309,134 Cushing Ave,2125.0,42.312929526966016,-71.06092055386566,0101000020E610000076A0521FE6C351C0CA2222130E284540,Citizens Connect App
101002328437,2018-01-15 10:46:00,2018-01-16 10:46:53,2018-01-18 01:18:29,OVERDUE,Closed,Case Closed. Closed date : 2018-01-18 06:18:29.127 Case Resolved ,Pick up Dead Animal,Public Works Department,Street Cleaning,Pick up Dead Animal,PWDx_District 1B: North End,PWDx,,,95 W Cedar St  Boston  MA  02114,3,1B,8,A1,Beacon Hill,14,Ward 5,0504,95 W Cedar St,2114.0,42.36066953476611,-71.06990046773475,0101000020E610000056B9CF3F79C451C0F33D586B2A2E4540,Constituent Call
101002328490,2018-01-15 11:59:00,2018-05-15 12:59:00,,OVERDUE,Open, ,Pest Infestation - Residential,Inspectional Services,Housing,Pest Infestation - Residential,ISD_Housing (INTERNAL),ISD,,,1 Agnes Ave  Mattapan  MA  02126,8,08,5,E18,Hyde Park,9,Ward 18,1805,1 Agnes Ave,2126.0,42.262939596316095,-71.1063807682562,0101000020E61000005C2548F1CEC651C023803301A8214540,Citizens Connect App
101002328517,2018-01-15 13:07:00,,,ONTIME,Open, ,Animal Generic Request,Animal Control,Animal Issues,Animal Generic Request,INFO01_GenericeFormforOtherServiceRequestTypes,INFO,,,INTERSECTION of Brainerd Rd & Griggs St  Allston  MA  ,11,04,8,D14,Allston / Brighton,15,21,2108,INTERSECTION Brainerd Rd & Griggs St,,42.34767244412143,-71.13324043939069,0101000020E6100000036CE80287C851C0689CD887802C4540,Constituent Call
101002328533,2018-01-15 13:37:00,2018-05-15 14:37:55,2018-02-02 08:29:03,ONTIME,Closed,Case Closed. Closed date : 2018-02-02 13:29:03.59 VIOCOR: Violation Corrected ,Pest Infestation - Residential,Inspectional Services,Housing,Pest Infestation - Residential,ISD_Housing (INTERNAL),ISD,,,1187 Dorchester Ave  Dorchester  MA  02125,7,03,3,C11,Dorchester,8,Ward 15,1504,1187 Dorchester Ave,2125.0,42.31011952328202,-71.058070553645,0101000020E610000004318E6DB7C351C0772C1DFFB1274540,Citizens Connect App
101002328571,2018-01-15 15:09:00,,,ONTIME,Open, ,Animal Generic Request,Animal Control,Animal Issues,Animal Generic Request,INFO01_GenericeFormforOtherServiceRequestTypes,INFO,,,14 Conway St  Roslindale  MA  02131,9,06,5,E5,Roslindale,10,Ward 20,2004,14 Conway St,2131.0,42.28863962494403,-71.12994076396382,0101000020E610000014E910F350C851C06FBBAA24F2244540,Constituent Call
101002328705,2018-01-16 02:47:00,2018-01-17 03:30:00,2018-01-16 03:40:03,ONTIME,Closed,Case Closed. Closed date : 2018-01-16 08:40:03.737 Case Resolved Look around area no dead animal need a better location  (notice) ,Pick up Dead Animal,Public Works Department,Street Cleaning,Pick up Dead Animal,PWDx_District 07: South Dorchester,PWDx,,,939 Morton St  Mattapan  MA  02126,8,07,4,B3,Greater Mattapan,9,Ward 18,1801,939 Morton St,2126.0,42.28020956004073,-71.08273067602298,0101000020E610000042F99A754BC551C0643328E8DD234540,Constituent Call
101002328725,2018-01-16 02:56:00,,2018-02-01 11:47:12,ONTIME,Closed,Case Closed. Closed date : 2018-02-01 16:47:12.87 Case Noted ACO responded to the location  the seagull is being transported to the shelter.   Thank you! ,Animal Generic Request,Animal Control,Animal Issues,Animal Generic Request,INFO01_GenericeFormforOtherServiceRequestTypes,INFO,,,INTERSECTION of Athens St & Dorchester St  South Boston  MA  ,6,05,2,C6,South Boston / South Boston Waterfront,5,6,0604,INTERSECTION Athens St & Dorchester St,,42.33579635297731,-71.04506181947399,0101000020E6100000193CF84AE2C251C0AA13F95FFB2A4540,Constituent Call
101002328823,2018-01-16 03:49:06,2018-01-17 03:49:06,2018-01-18 01:18:18,OVERDUE,Closed,Case Closed. Closed date : 2018-01-18 06:18:18.323 Case Resolved ,Pick up Dead Animal,Public Works Department,Street Cleaning,Pick up Dead Animal,PWDx_District 1B: North End,PWDx,,,98 W Cedar St  Boston  MA  02114,3,1B,8,A1,Beacon Hill,14,Ward 5,0511,98 W Cedar St,2114.0,42.36071253536629,-71.07020846829897,0101000020E6100000C4CFA84B7EC451C0E6530FD42B2E4540,Citizens Connect App
101002329354,2018-01-16 09:13:16,2018-05-16 10:13:16,2018-10-09 06:53:21,OVERDUE,Closed,Case Closed. Closed date : 2018-10-09 10:53:21.98 : ,Bed Bugs,Inspectional Services,Housing,Bed Bugs,ISD_Housing (INTERNAL),ISD,,,10 Rockwell St  Dorchester  MA  02124,8,07,4,B3,Dorchester,9,17,1710,10 Rockwell St,2124.0,42.28351954511317,-71.07205064484543,0101000020E610000014D14E7A9CC451C0D904535E4A244540,Constituent Call
101002329394,2018-01-16 09:57:00,2018-01-17 09:57:27,2018-01-17 13:40:50,OVERDUE,Closed,Case Closed. Closed date : 2018-01-17 18:40:50.82 Case Resolved ,Pick up Dead Animal,Public Works Department,Street Cleaning,Pick up Dead Animal,PWDx_District 1C: Downtown,PWDx,,,620 Tremont St  Roxbury  MA  02118,4,1C,2,D4,South End,6,Ward 9,0901,620 Tremont St,2118.0,42.34239954232728,-71.07399051739954,0101000020E61000007D1CB942BCC451C0033B8ABFD32B4540,Constituent Call
101002329410,2018-01-16 10:10:00,2018-01-17 10:10:20,2018-01-18 05:25:00,OVERDUE,Closed,Case Closed. Closed date : 2018-01-18 10:25:00.04 Case Resolved ,Pick up Dead Animal,Public Works Department,Street Cleaning,Pick up Dead Animal,PWDx_District 1C: Downtown,PWDx,,,261 Commonwealth Ave  Boston  MA  02116,4,1C,8,D4,Back Bay,14,Ward 5,0508,261 Commonwealth Ave,2116.0,42.35079955405998,-71.0838905212659,0101000020E6100000035259765EC551C0CB11F2FFE62C4540,Constituent Call
101002329417,2018-01-16 10:13:00,2018-01-17 10:13:31,2018-01-16 16:11:58,ONTIME,Closed,Case Closed. Closed date : 2018-01-16 21:11:58.753 Case Resolved Picked up dead rat  ,Pick up Dead Animal,Public Works Department,Street Cleaning,Pick up Dead Animal,PWDx_District 1B: North End,PWDx,,,97 W Cedar St  Boston  MA  02114,3,1B,8,A1,Beacon Hill,14,Ward 5,0504,97 W Cedar St,2114.0,42.36070953474287,-71.06985046792634,0101000020E6100000A7D6186E78C451C0BA89E3BA2B2E4540,Constituent Call
101002329470,2018-01-16 11:19:00,,2018-02-26 05:04:50,ONTIME,Closed,Case Closed. Closed date : 2018-02-26 10:04:50.753 Case Resolved Animal control was notified of this complaint on 1/16 and will investigate. Thank you. ,Animal Generic Request,Animal Control,Animal Issues,Animal Generic Request,INFO01_GenericeFormforOtherServiceRequestTypes,INFO,,,41 Harvard St  Dorchester  MA  02121,7,03,4,B3,Dorchester,8,Ward 14,1402,41 Harvard St,2121.0,42.29869954912056,-71.07578061972113,0101000020E6100000DDD7F496D9C451C0C1666DC93B264540,Constituent Call
101002329473,2018-01-16 11:21:51,2018-01-17 11:21:51,2018-01-17 00:15:05,ONTIME,Closed,Case Closed. Closed date : 2018-01-17 05:15:05.79 Case Noted Nothing found at said location ,Pick up Dead Animal,Public Works Department,Street Cleaning,Pick up Dead Animal,PWDx_District 05: South Boston,PWDx,,,88 P St  South Boston  MA  02127,6,05,2,C6,South Boston / South Boston Waterfront,5,Ward 6,0609,88 P St,2127.0,42.335279480546895,-71.02693042737965,0101000020E61000003A37663AB9C151C001FC2170EA2A4540,Citizens Connect App
101002329477,2018-01-16 11:26:47,2018-01-17 11:26:46,2018-01-17 00:14:35,ONTIME,Closed,Case Closed. Closed date : 2018-01-17 05:14:35.38 Case Resolved Nothing found at said location ,Pick up Dead Animal,Public Works Department,Street Cleaning,Pick up Dead Animal,PWDx_District 05: South Boston,PWDx,,,88 P St  South Boston  MA  02127,6,05,2,C6,South Boston / South Boston Waterfront,5,Ward 6,0609,88 P St,2127.0,42.335279480546895,-71.02693042737965,0101000020E61000003A37663AB9C151C001FC2170EA2A4540,Citizens Connect App
101002329488,2018-01-16 11:39:00,,,ONTIME,Open, ,Animal Generic Request,Animal Control,Animal Issues,Animal Generic Request,INFO01_GenericeFormforOtherServiceRequestTypes,INFO,,,42 Eighth St  Charlestown  MA  02129,3,1A,1,A15,Charlestown,2,Ward 2,0202,42 Eighth St,2129.0,42.37483051098842,-71.05239939683588,0101000020E610000060EFFF825AC351C07F1E3972FA2F4540,Constituent Call
101002329491,2018-01-16 11:42:00,,,ONTIME,Open, ,Animal Generic Request,Animal Control,Animal Issues,Animal Generic Request,INFO01_GenericeFormforOtherServiceRequestTypes,INFO,,,61 W Newton St  Roxbury  MA  02118,4,1C,2,D4,South End,6,Ward 9,0901,61 W Newton St,2118.0,42.34022954352137,-71.0750005248424,0101000020E6100000615800CFCCC451C0554745A48C2B4540,Constituent Call
101002329536,2018-01-16 12:34:00,,,ONTIME,Open, ,Animal Generic Request,Animal Control,Animal Issues,Animal Generic Request,INFO01_GenericeFormforOtherServiceRequestTypes,INFO,,,INTERSECTION of Spruce St & Beacon St  Boston  MA  ,3,1C,7,A1,Beacon Hill,14,5,0503,INTERSECTION Spruce St & Beacon St,,42.35657446018864,-71.06761533196956,0101000020E61000001EE141CF53C451C0AE8C5E3BA42D4540,Constituent Call
101002330257,2018-01-17 11:30:00,2018-05-17 12:30:01,2018-02-06 09:29:28,ONTIME,Closed,Case Closed. Closed date : 2018-02-06 14:29:28.26 VIOCOR: Violation Corrected ,Pest Infestation - Residential,Inspectional Services,Housing,Pest Infestation - Residential,ISD_Housing (INTERNAL),ISD,,,7 Libbey St  West Roxbury  MA  02132,12,06,6,E5,West Roxbury,12,Ward 20,2017,7 Libbey St,2132.0,42.2875596756914,-71.16594084734423,0101000020E61000007F1A5CC69ECA51C0185F65C1CE244540,Citizens Connect App
101002330272,2018-01-17 11:39:00,,,ONTIME,Open, ,Animal Lost,Animal Control,Animal Issues,Animal Lost,ANML02_LostFound,ANML,,,59 Victory Rd  Dorchester  MA  02122,8,07,3,C11,Dorchester,7,Ward 16,1605,59 Victory Rd,2122.0,42.29588951652786,-71.05237057287984,0101000020E6100000AB721A0A5AC351C0B35B2AB5DF254540,Constituent Call
101002330375,2018-01-17 14:20:05,2018-01-19 03:30:00,2018-01-17 17:52:54,ONTIME,Closed,Case Closed. Closed date : 2018-01-17 22:52:54.697 Case Resolved Pi ,Pick up Dead Animal,Public Works Department,Street Cleaning,Pick up Dead Animal,PWDx_District 05: South Boston,PWDx,,,226 W Ninth St  South Boston  MA  02127,6,05,2,C6,South Boston,5,07,0705,226 W Ninth St,2127.0,42.33279951367796,-71.05182048956783,0101000020E610000038FDE20651C351C08FAFA92C992A4540,Citizens Connect App
101002330424,2018-01-17 16:16:00,,,ONTIME,Open, ,Animal Generic Request,Animal Control,Animal Issues,Animal Generic Request,INFO01_GenericeFormforOtherServiceRequestTypes,INFO,,,202 Corey Rd  Brighton  MA  02135,11,04,9,D14,Allston / Brighton,15,Ward 21,2110,202 Corey Rd,2135.0,42.34384962710352,-71.13892066013406,0101000020E6100000EE007B13E4C851C06193BB43032C4540,Constituent Call
101002330506,2018-01-18 02:24:41,2018-01-19 03:30:00,2018-01-18 03:50:17,ONTIME,Closed,Case Closed. Closed date : 2018-01-18 08:50:17.347 Case Invalid Nothing found at this location. A better location is needed.  ,Pick up Dead Animal,Public Works Department,Street Cleaning,Pick up Dead Animal,PWDx_District 06: West Roxbury and Roslindale,PWDx,,,400 W Roxbury Pkwy  Roslindale  MA  02132,9,06,6,E5,West Roxbury,12,Ward 20,2006,400 W Roxbury Pkwy,2132.0,42.29199964697548,-71.14619079344077,0101000020E61000007B33A1305BC951C0041A933E60254540,Citizens Connect App
101002330579,2018-01-18 03:18:00,2018-05-18 04:18:35,,OVERDUE,Open, ,Bed Bugs,Inspectional Services,Housing,Bed Bugs,ISD_Housing (INTERNAL),ISD,,,14 Circuit St  Roxbury  MA  02119,7,10B,7,B2,Roxbury,13,12,1203,14 Circuit St,2119.0,42.32353355872807,-71.08503358473435,0101000020E6100000B95FB43071C551C0A1F2328C69294540,Constituent Call
101002330662,2018-01-18 04:20:00,2018-01-19 04:20:12,2018-01-18 13:54:59,ONTIME,Closed,Case Closed. Closed date : 2018-01-18 18:54:59.9 Case Resolved Picked up dead animal ,Pick up Dead Animal,Public Works Department,Street Cleaning,Pick up Dead Animal,PWDx_District 1B: North End,PWDx,,,31-37 Parmenter St  Boston  MA  02113,3,1B,1,A1,Downtown / Financial District,3,Ward 3,0303,31-37 Parmenter St,2113.0,42.3641666432675,-71.05538362599435,0101000020E61000004C98C3678BC351C0639037039D2E4540,Constituent Call
101002330663,2018-01-18 04:20:18,2018-01-19 04:20:18,2018-01-18 04:55:14,ONTIME,Closed,Case Closed. Closed date : 2018-01-18 09:55:14.037 Case Resolved Picked up  ,Pick up Dead Animal,Public Works Department,Street Cleaning,Pick up Dead Animal,PWDx_District 09: East Boston,PWDx,,,202 Bremen St  East Boston  MA  02128,1,09,1,A7,East Boston,1,Ward 1,0105,202 Bremen St,2128.0,42.37349948745433,-71.03379035813404,0101000020E6100000C6C6089F29C251C035D8C9D4CE2F4540,Citizens Connect App
101002330828,2018-01-18 06:05:00,2018-05-18 07:05:10,,OVERDUE,Open, ,Bed Bugs,Inspectional Services,Housing,Bed Bugs,ISD_Housing (INTERNAL),ISD,,,60 Brookledge St  Dorchester  MA  02121,9,10B,7,B2,Roxbury,13,Ward 12,1207,60 Brookledge St,2121.0,42.30901956562412,-71.08889062580641,0101000020E61000009CB04E62B0C551C0011700F48D274540,Constituent Call
101002331039,2018-01-18 08:34:00,2018-05-18 09:34:21,,OVERDUE,Open, ,Bed Bugs,Inspectional Services,Housing,Bed Bugs,ISD_Housing (INTERNAL),ISD,,,213 Kelton St  Allston  MA  02134,11,04,9,D14,Allston / Brighton,15,Ward 21,2108,213 Kelton St,2134.0,42.34698762487173,-71.13740464987244,0101000020E61000004F61DF3CCBC851C06C782A176A2C4540,Constituent Call
101002331129,2018-01-18 10:06:00,2018-01-19 10:06:31,2018-01-18 12:21:17,ONTIME,Closed,Case Closed. Closed date : 2018-01-18 17:21:17.507 Case Noted No dead animal found on arrival ,Pick up Dead Animal,Public Works Department,Street Cleaning,Pick up Dead Animal,PWDx_District 1B: North End,PWDx,,,30 Parmenter St  Boston  MA  02113,3,1B,1,A1,Downtown / Financial District,3,Ward 3,0303,30 Parmenter St,2113.0,42.36396951592722,-71.05539042781906,0101000020E6100000A3FF4A848BC351C0FDD2978D962E4540,Constituent Call
101002331212,2018-01-18 11:25:00,,,ONTIME,Open, ,Animal Generic Request,Animal Control,Animal Issues,Animal Generic Request,INFO01_GenericeFormforOtherServiceRequestTypes,INFO,,,1120 Adams St  Dorchester  MA  02124,8,07,3,C11,Dorchester,7,Ward 17,1713,1120 Adams St,2124.0,42.27329953454739,-71.06360064868895,0101000020E6100000E687740812C451C05072A97AFB224540,Constituent Call
101002331270,2018-01-18 12:35:38,2018-01-22 03:30:00,2018-01-18 15:14:22,ONTIME,Closed,Case Closed. Closed date : 2018-01-18 20:14:22.22 Case Noted It's must be a same one that was already been removed from this area  ,Pick up Dead Animal,Public Works Department,Street Cleaning,Pick up Dead Animal,PWDx_District 03: North Dorchester,PWDx,,,INTERSECTION of Mascoma St & Sweet Fern Ter  Dorchester  MA  ,7,03,9,B2,Roxbury,13,13,1304,INTERSECTION Mascoma St & Sweet Fern Ter,,42.31282111397891,-71.0746025985685,0101000020E61000001843FA49C6C451C0D404B3850A284540,Citizens Connect App
101002331291,2018-01-18 12:57:00,2018-01-22 03:30:00,2018-01-18 13:34:01,ONTIME,Closed,Case Closed. Closed date : 2018-01-18 18:34:01.08 Case Resolved Picked up dead cat  ,Pick up Dead Animal,Public Works Department,Street Cleaning,Pick up Dead Animal,PWDx_District 03: North Dorchester,PWDx,,,199 Quincy St  Dorchester  MA  02121,7,03,7,B2,Roxbury,13,Ward 13,1301,199 Quincy St,2121.0,42.31293954654569,-71.07518058617559,0101000020E6100000C5BA3BC2CFC451C0F8042F670E284540,Constituent Call
101002331371,2018-01-18 14:50:00,,2018-02-01 11:39:52,ONTIME,Closed,Case Closed. Closed date : 2018-02-01 16:39:52.647 Case Noted ACO responded to the location and was unable to locate the skunk.   Thank you! ,Animal Generic Request,Animal Control,Animal Issues,Animal Generic Request,INFO01_GenericeFormforOtherServiceRequestTypes,INFO,,,63 Birchwood St  West Roxbury  MA  02132,12,06,6,E5,West Roxbury,12,Ward 20,2015,63 Birchwood St,2132.0,42.25779966930807,-71.15718089443794,0101000020E6100000B04A74400FCA51C0844C5E94FF204540,Constituent Call
101002331396,2018-01-18 15:54:00,,2018-02-07 08:37:25,ONTIME,Closed,Case Closed. Closed date : 2018-02-07 13:37:25.217 Case Noted This call was cancelled.   Thank you! ,Animal Generic Request,Animal Control,Animal Issues,Animal Generic Request,INFO01_GenericeFormforOtherServiceRequestTypes,INFO,,,231 W Newton St  Boston  MA  02116,4,1C,7,D4,Back Bay,14,Ward 4,0405,231 W Newton St,2116.0,42.3444095500538,-71.07999052687595,0101000020E6100000023B96901EC551C0A0F4B49C152C4540,Constituent Call
101002331450,2018-01-18 18:40:00,,2018-02-01 11:40:28,ONTIME,Closed,Case Closed. Closed date : 2018-02-01 16:40:28.37 Case Noted ACO released the bat.   Thank you! ,Animal Generic Request,Animal Control,Animal Issues,Animal Generic Request,INFO01_GenericeFormforOtherServiceRequestTypes,INFO,,,109 Saint Stephen St  Boston  MA  02115,4,10A,7,D4,Boston,13,04,0408,109 Saint Stephen St,2115.0,42.34146956198914,-71.08900055347952,0101000020E61000004FA1602FB2C551C052A94C46B52B4540,Constituent Call
101002331457,2018-01-18 19:44:00,,,ONTIME,Open, ,Animal Lost,Animal Control,Animal Issues,Animal Lost,ANML02_LostFound,ANML,,,78 Glenville Ave  Allston  MA  02134,11,04,9,D14,Allston / Brighton,15,Ward 21,2107,78 Glenville Ave,2134.0,42.34922562147968,-71.13499763918847,0101000020E6100000825623CDA3C851C01B97D76CB32C4540,Constituent Call
101002331583,2018-01-19 03:10:00,,2018-02-01 11:41:12,ONTIME,Closed,Case Closed. Closed date : 2018-02-01 16:41:12.767 Case Noted ACO is responding to the location.   Thank you! ,Animal Generic Request,Animal Control,Animal Issues,Animal Generic Request,INFO01_GenericeFormforOtherServiceRequestTypes,INFO,,,170 Morton St  Jamaica Plain  MA  02130,9,02,7,B2,Jamaica Plain,13,12,1207,170 Morton St,2130.0,42.29959501240158,-71.10193930304015,0101000020E6100000022F6D2C86C651C09E271E2159264540,Constituent Call
101002331691,2018-01-19 04:24:00,2018-05-19 05:24:02,2018-02-20 10:22:49,ONTIME,Closed,Case Closed. Closed date : 2018-02-20 15:22:49.95 VIOCOR: Violation Corrected ,Pest Infestation - Residential,Inspectional Services,Housing,Pest Infestation - Residential,ISD_Housing (INTERNAL),ISD,,,69 E Berkeley St  Roxbury  MA  02118,4,1C,2,D4,South End,4,Ward 3,0307,69 E Berkeley St,2118.0,42.34401953219243,-71.06663049755326,0101000020E610000014FA8FAC43C451C0D2F9FFD4082C4540,Citizens Connect App
101002331708,2018-01-19 04:33:00,2018-01-22 04:33:35,2018-01-19 05:23:04,ONTIME,Closed,Case Closed. Closed date : 2018-01-19 10:23:04.203 Case Resolved Picked up ,Pick up Dead Animal,Public Works Department,Street Cleaning,Pick up Dead Animal,PWDx_District 03: North Dorchester,PWDx,,,557 Dudley St  Dorchester  MA  02125,7,03,7,B2,Roxbury,13,Ward 13,1302,557 Dudley St,2125.0,42.32118954198198,-71.07240056149081,0101000020E61000002AF4F635A2C451C09E5029BD1C294540,Constituent Call
101002331810,2018-01-19 05:30:00,,,ONTIME,Open, ,Animal Generic Request,Animal Control,Animal Issues,Animal Generic Request,INFO01_GenericeFormforOtherServiceRequestTypes,INFO,,,110 Pierce Ave  Dorchester  MA  02122,8,07,3,C11,Dorchester,7,Ward 16,1610,110 Pierce Ave,2122.0,42.28824451316148,-71.04910058242632,0101000020E610000014EFC47624C351C0D7A33A32E5244540,Constituent Call
101002331934,2018-01-19 06:45:48,2018-01-22 06:45:48,2018-01-19 07:05:35,ONTIME,Closed,Case Closed. Closed date : 2018-01-19 12:05:35.42 Case Resolved Dead animal on sidewal has been removed by PWD Highway Maintenance.  ,Pick up Dead Animal,Public Works Department,Street Cleaning,Pick up Dead Animal,PWDx_District 06: West Roxbury and Roslindale,PWDx,,,342 Vermont St  West Roxbury  MA  02132,12,06,6,E5,West Roxbury,12,Ward 20,2017,342 Vermont St,2132.0,42.284979679887805,-71.16870085979205,0101000020E61000004BE7B0FECBCA51C04392D2367A244540,Citizens Connect App
101002332054,2018-01-19 07:51:54,2018-01-22 07:51:54,2018-01-19 08:07:39,ONTIME,Closed,Case Closed. Closed date : 2018-01-19 13:07:39.207 Case Resolved Picked up ,Pick up Dead Animal,Public Works Department,Street Cleaning,Pick up Dead Animal,PWDx_District 08: Hyde Park,PWDx,,,721-725 River St  Mattapan  MA  02126,8,08,5,E18,Hyde Park,9,Ward 18,1805,721-725 River St,2126.0,42.26375568232156,-71.10251232331822,0101000020E6100000AE05D98F8FC651C046DA06BFC2214540,City Worker App
101002332173,2018-01-19 09:44:00,2018-01-22 09:44:33,2018-01-19 11:41:31,ONTIME,Closed,Case Closed. Closed date : 2018-01-19 16:41:31.107 Case Noted Brighton Street and Washington street don't meet need better location on dead rabbit ,Pick up Dead Animal,Public Works Department,Street Cleaning,Pick up Dead Animal,PWDx_District 1A: Charlestown,PWDx,,,INTERSECTION of Perkins St & Brighton St  Charlestown  MA  ,3,1A,1,A15,Charlestown,2,2,0207,INTERSECTION Perkins St & Brighton St,,42.38394442225927,-71.07764160984978,0101000020E610000045C78314F8C451C0E78A401725314540,Constituent Call
101002342339,2018-01-19 14:48:47,2018-01-23 03:30:00,2018-01-19 15:43:51,ONTIME,Closed,Case Closed. Closed date : 2018-01-19 20:43:51.753 Case Resolved It's all set  ,Pick up Dead Animal,Public Works Department,Street Cleaning,Pick up Dead Animal,PWDx_District 04: Allston/Brighton,PWDx,,,37 Riverdale St  Allston  MA  02134,11,04,9,D14,Allston / Brighton,15,Ward 22,2202,37 Riverdale St,2134.0,42.36235961591198,-71.1327606049797,0101000020E6100000702556267FC851C0D5DDC5CC612E4540,Citizens Connect App
101002342378,2018-01-19 16:01:25,2018-01-23 03:30:00,2018-01-19 16:52:09,ONTIME,Closed,Case Closed. Closed date : 2018-01-19 21:52:09.16 Case Noted I'm not able to see any thing in this location it may be under car or it's wrong  address  ,Pick up Dead Animal,Public Works Department,Street Cleaning,Pick up Dead Animal,PWDx_District 09: East Boston,PWDx,,,645 Saratoga St  East Boston  MA  02128,1,09,1,A7,East Boston,1,Ward 1,0111,645 Saratoga St,2128.0,42.38216947111246,-71.02105031024179,0101000020E6100000C98366E358C151C094FAE1EDEA304540,Citizens Connect App
101002342403,2018-01-19 17:18:21,2018-01-23 03:30:00,2018-01-19 23:00:24,ONTIME,Closed,Case Closed. Closed date : 2018-01-20 04:00:24.34 Case Noted No animal found. Please provide better location  ,Pick up Dead Animal,Public Works Department,Street Cleaning,Pick up Dead Animal,PWDx_District 1B: North End,PWDx,,,4 Revere St  Boston  MA  02114,3,1B,8,A1,Beacon Hill,14,Ward 5,0504,4 Revere St,2114.0,42.35948953071129,-71.0665404628152,0101000020E6100000BAE9ED3242C451C067D4C0C0032E4540,Citizens Connect App
101002342406,2018-01-19 17:19:00,,2018-02-01 07:46:50,ONTIME,Closed,Case Closed. Closed date : 2018-02-01 12:46:50.107 Case Resolved ACO officer transported the dog the shelter.   Thank you! ,Animal Found,Animal Control,Animal Issues,Animal Found,ANML02_LostFound,ANML,,,350 S Huntington Ave  Jamaica Plain  MA  02130,9,02,6,E13,Jamaica Plain,11,Ward 10,1009,350 S Huntington Ave,2130.0,42.32276215076271,-71.11104301607821,0101000020E610000054A02A541BC751C0CBF4284550294540,Constituent Call
101002342418,2018-01-19 17:37:00,2018-01-23 03:30:00,2018-01-19 22:02:30,ONTIME,Closed,Case Closed. Closed date : 2018-01-20 03:02:30.313 Case Noted Was unable to locate dead animal. ,Pick up Dead Animal,Public Works Department,Street Cleaning,Pick up Dead Animal,PWDx_District 10B: Roxbury,PWDx,,,INTERSECTION of Seaver St & Columbus Ave  Roxbury  MA  ,9,10B,6,E13,Roxbury,11,11,1105,INTERSECTION Seaver St & Columbus Ave,,42.31336868984949,-71.09506267245212,0101000020E61000002450BF8115C651C0393F19771C284540,Constituent Call
101002342470,2018-01-20 02:18:00,,2018-02-01 07:45:17,ONTIME,Closed,Case Closed. Closed date : 2018-02-01 12:45:17.1 Case Resolved ACO officer transported the dog to the shelter.   Thank you!  ,Animal Found,Animal Control,Animal Issues,Animal Found,ANML02_LostFound,ANML,,,1 Nashua St  Boston  MA  02114,3,1B,8,A1,Boston,3,03, ,1 Nashua St,2114.0,42.36593760825966,-71.06329293091117,0101000020E61000003715CBFD0CC451C004ED250BD72E4540,Constituent Call
